[
  {
    "visit": 1,
    "longitude": 120.21256276667,
    "latitude": 22.97992713496,
    "name": "大山牛排",
    "date": "2016-06-09T14:30:01.989Z"
  },
  {
    "visit": 1,
    "longitude": 120.20183,
    "latitude": 23.00025,
    "name": "嘟嘟牛排",
    "date": "2016-06-09T14:30:01.989Z"
  },
  {
    "visit": 1,
    "longitude": 120.19642,
    "latitude": 22.9906599,
    "name": "宏昇KTV",
    "date": "2016-06-09T14:30:01.989Z"
  },
  {
    "visit": 1,
    "longitude": 120.19964562025,
    "latitude": 22.992108589983,
    "name": "松仔腳燒烤海產",
    "date": "2016-06-09T14:30:01.989Z"
  },
  {
    "visit": 1,
    "longitude": 120.22107832478,
    "latitude": 23.024788077567,
    "name": "Golden Brother's Dormit0ry",
    "date": "2016-06-09T14:30:01.989Z"
  },
  {
    "visit": 1,
    "longitude": 120.20473,
    "latitude": 23.00243,
    "name": "大歡喜",
    "date": "2016-06-09T14:30:01.989Z"
  },
  {
    "visit": 1,
    "longitude": 120.22614,
    "latitude": 22.99212,
    "name": "九分十刻西式新料理",
    "date": "2016-06-09T14:30:01.989Z"
  },
  {
    "visit": 1,
    "longitude": 120.15367412095,
    "latitude": 22.996183559575,
    "name": "台灣咖啡博物館",
    "date": "2016-06-09T14:30:01.989Z"
  },
  {
    "visit": 1,
    "longitude": 120.18712944447,
    "latitude": 22.997735053692,
    "name": "星巴克 Starbucks 府中門市",
    "date": "2016-06-09T14:30:01.989Z"
  },
  {
    "visit": 1,
    "longitude": 120.23455,
    "latitude": 23.03875,
    "name": "Starbucks Coffee-台南drive Thru",
    "date": "2016-06-09T14:30:01.989Z"
  },
  {
    "visit": 1,
    "longitude": 120.16294,
    "latitude": 23.00068,
    "name": "永泰興蜜餞行",
    "date": "2016-06-09T14:30:01.989Z"
  },
  {
    "visit": 1,
    "longitude": 120.19875107436,
    "latitude": 22.986704450981,
    "name": "新天地1010湘菜館",
    "date": "2016-06-09T14:30:01.989Z"
  },
  {
    "visit": 1,
    "longitude": 120.23061510943,
    "latitude": 22.998940995345,
    "name": "小東路旁一家無名的麵攤",
    "date": "2016-06-09T14:30:01.989Z"
  },
  {
    "visit": 1,
    "longitude": 120.21150978657,
    "latitude": 22.989533475104,
    "name": "Map北門形象館",
    "date": "2016-06-09T14:30:01.989Z"
  },
  {
    "visit": 1,
    "longitude": 120.19152027,
    "latitude": 22.981854910916,
    "name": "85度c咖啡蛋糕烘焙專賣店",
    "date": "2016-06-09T14:30:01.989Z"
  },
  {
    "visit": 1,
    "longitude": 120.17913393594,
    "latitude": 22.997524545472,
    "name": "南山人壽台南分公司",
    "date": "2016-06-09T14:30:01.989Z"
  },
  {
    "visit": 1,
    "longitude": 120.19780200611,
    "latitude": 22.988245991803,
    "name": "台南西門錢櫃KTV",
    "date": "2016-06-09T14:30:01.989Z"
  },
  {
    "visit": 1,
    "longitude": 120.22082,
    "latitude": 22.97444,
    "name": "長榮桂冠2樓吃遍天下",
    "date": "2016-06-09T14:30:01.989Z"
  },
  {
    "visit": 1,
    "longitude": 120.21133311879,
    "latitude": 22.99709976753,
    "name": "爭鮮迴轉壽司-台南店",
    "date": "2016-06-09T14:30:01.989Z"
  },
  {
    "visit": 2,
    "longitude": 120.19844,
    "latitude": 22.9994799,
    "name": "梅鑫海產",
    "date": "2016-06-09T14:30:01.989Z"
  },
  {
    "visit": 2,
    "longitude": 120.21016,
    "latitude": 22.9956299,
    "name": "focus 星巴克",
    "date": "2016-06-09T14:30:01.989Z"
  },
  {
    "visit": 2,
    "longitude": 120.21058,
    "latitude": 22.99356,
    "name": "深呼吸運動會館",
    "date": "2016-06-09T14:30:01.989Z"
  },
  {
    "visit": 2,
    "longitude": 120.20991032661,
    "latitude": 22.991609595046,
    "name": "東菜市場",
    "date": "2016-06-09T14:30:01.989Z"
  },
  {
    "visit": 2,
    "longitude": 120.22749418998,
    "latitude": 22.990084405328,
    "name": "多那之",
    "date": "2016-06-09T14:30:01.989Z"
  },
  {
    "visit": 2,
    "longitude": 120.20507,
    "latitude": 22.98997,
    "name": "台南府中街保哥炒泡麵",
    "date": "2016-06-09T14:30:01.989Z"
  },
  {
    "visit": 2,
    "longitude": 120.18668,
    "latitude": 23.00243,
    "name": "宜得利家居",
    "date": "2016-06-09T14:30:01.989Z"
  },
  {
    "visit": 2,
    "longitude": 120.22317,
    "latitude": 22.98084,
    "name": "準媽媽婦嬰用品專賣店(直營系統)",
    "date": "2016-06-09T14:30:01.989Z"
  },
  {
    "visit": 2,
    "longitude": 120.25500522743,
    "latitude": 23.036751438841,
    "name": "永康駕訓班",
    "date": "2016-06-09T14:30:01.989Z"
  },
  {
    "visit": 3,
    "longitude": 120.20136,
    "latitude": 22.99737,
    "name": "民族路石精臼牛肉湯",
    "date": "2016-06-09T14:30:01.989Z"
  },
  {
    "visit": 3,
    "longitude": 120.20750741617,
    "latitude": 22.984047594813,
    "name": "國立台南大學",
    "date": "2016-06-09T14:30:01.989Z"
  },
  {
    "visit": 3,
    "longitude": 120.19995,
    "latitude": 22.9989,
    "name": "開基共善堂",
    "date": "2016-06-09T14:30:01.989Z"
  },
  {
    "visit": 3,
    "longitude": 120.14409455291,
    "latitude": 22.996630960005,
    "name": "安平練車場",
    "date": "2016-06-09T14:30:01.989Z"
  },
  {
    "visit": 3,
    "longitude": 120.19605929352,
    "latitude": 22.979536452935,
    "name": "新興國小",
    "date": "2016-06-09T14:30:01.989Z"
  },
  {
    "visit": 3,
    "longitude": 120.19989034326,
    "latitude": 23.010470012528,
    "name": "台南花園夜市~\\(^O^)>",
    "date": "2016-06-09T14:30:01.989Z"
  },
  {
    "visit": 3,
    "longitude": 120.21391,
    "latitude": 22.99641,
    "name": "Starbucks Coffee統一星巴克",
    "date": "2016-06-09T14:30:01.989Z"
  },
  {
    "visit": 3,
    "longitude": 120.20790586704,
    "latitude": 22.990283538178,
    "name": "順風號",
    "date": "2016-06-09T14:30:01.989Z"
  },
  {
    "visit": 4,
    "longitude": 120.20546,
    "latitude": 22.98454,
    "name": "波哥三店（南寧街）",
    "date": "2016-06-09T14:30:01.989Z"
  },
  {
    "visit": 4,
    "longitude": 120.22833,
    "latitude": 22.99349,
    "name": "Domo Pann 多麼胖咖啡東興店",
    "date": "2016-06-09T14:30:01.989Z"
  },
  {
    "visit": 4,
    "longitude": 120.22355826271,
    "latitude": 22.999363759867,
    "name": "成大自強校區",
    "date": "2016-06-09T14:30:01.989Z"
  },
  {
    "visit": 4,
    "longitude": 120.24300606489,
    "latitude": 23.044154403478,
    "name": "桂田酒店國際宴會廳",
    "date": "2016-06-09T14:30:01.989Z"
  },
  {
    "visit": 4,
    "longitude": 120.2178192,
    "latitude": 22.9795609,
    "name": "維達都會生活俱樂部 La Vida Health Club",
    "date": "2016-06-09T14:30:01.989Z"
  },
  {
    "visit": 4,
    "longitude": 120.2908639813,
    "latitude": 22.996635786818,
    "name": "阿菊食堂",
    "date": "2016-06-09T14:30:01.989Z"
  },
  {
    "visit": 4,
    "longitude": 120.22675735848,
    "latitude": 22.969023773846,
    "name": "台南市立醫院急診室",
    "date": "2016-06-09T14:30:01.989Z"
  },
  {
    "visit": 4,
    "longitude": 120.1611151,
    "latitude": 23.000049,
    "name": "安平天后宮",
    "date": "2016-06-09T14:30:01.989Z"
  },
  {
    "visit": 4,
    "longitude": 120.22279,
    "latitude": 22.97962,
    "name": "加州廚房",
    "date": "2016-06-09T14:30:01.989Z"
  },
  {
    "visit": 4,
    "longitude": 120.20767115689,
    "latitude": 22.98325435023,
    "name": "台南大學操場",
    "date": "2016-06-09T14:30:01.989Z"
  },
  {
    "visit": 4,
    "longitude": 120.28041299404,
    "latitude": 23.09468755166,
    "name": "瀚宇彩晶",
    "date": "2016-06-09T14:30:01.989Z"
  },
  {
    "visit": 4,
    "longitude": 120.18707558682,
    "latitude": 22.98875858967,
    "name": "Friday's",
    "date": "2016-06-09T14:30:01.989Z"
  },
  {
    "visit": 4,
    "longitude": 120.21190434854,
    "latitude": 22.994547266202,
    "name": "北門商場",
    "date": "2016-06-09T14:30:01.989Z"
  },
  {
    "visit": 4,
    "longitude": 120.18705685685,
    "latitude": 22.988698686301,
    "name": "Friday星期五餐廳",
    "date": "2016-06-09T14:30:01.989Z"
  },
  {
    "visit": 4,
    "longitude": 120.20207,
    "latitude": 22.99674,
    "name": "台南武廟",
    "date": "2016-06-09T14:30:01.989Z"
  },
  {
    "visit": 4,
    "longitude": 120.18701881914,
    "latitude": 22.988361945739,
    "name": "品田牧場-安平家樂福店",
    "date": "2016-06-09T14:30:01.989Z"
  },
  {
    "visit": 5,
    "longitude": 120.17701185589,
    "latitude": 23.161174557172,
    "name": "佳里菜市場",
    "date": "2016-06-09T14:30:01.989Z"
  },
  {
    "visit": 5,
    "longitude": 120.22043,
    "latitude": 22.97694,
    "name": "翰林茶館",
    "date": "2016-06-09T14:30:01.989Z"
  },
  {
    "visit": 5,
    "longitude": 120.21881,
    "latitude": 22.97964,
    "name": "Malibu泰式料理餐廳",
    "date": "2016-06-09T14:30:01.989Z"
  },
  {
    "visit": 5,
    "longitude": 120.21331,
    "latitude": 22.9945099,
    "name": "府城騷烤家",
    "date": "2016-06-09T14:30:01.989Z"
  },
  {
    "visit": 5,
    "longitude": 120.21200062511,
    "latitude": 22.99715067333,
    "name": "臺南火車站",
    "date": "2016-06-09T14:30:01.989Z"
  },
  {
    "visit": 6,
    "longitude": 120.25168441453,
    "latitude": 22.99871999678,
    "name": "異人館咖啡部屋 崑山店",
    "date": "2016-06-09T14:30:01.989Z"
  },
  {
    "visit": 6,
    "longitude": 120.21818488133,
    "latitude": 23.002205663651,
    "name": "台南成大醫院",
    "date": "2016-06-09T14:30:01.989Z"
  },
  {
    "visit": 6,
    "longitude": 120.2145796297,
    "latitude": 22.99636286319,
    "name": "香格里拉國際大飯店",
    "date": "2016-06-09T14:30:01.989Z"
  },
  {
    "visit": 6,
    "longitude": 120.26083,
    "latitude": 23.02775,
    "name": "三角窗海鮮碳烤",
    "date": "2016-06-09T14:30:01.989Z"
  },
  {
    "visit": 6,
    "longitude": 120.22719,
    "latitude": 22.98257,
    "name": "吳峻賢婦產科",
    "date": "2016-06-09T14:30:01.989Z"
  },
  {
    "visit": 6,
    "longitude": 120.25556446568,
    "latitude": 23.025382654581,
    "name": "永康麥當勞中山店",
    "date": "2016-06-09T14:30:01.989Z"
  },
  {
    "visit": 6,
    "longitude": 120.1864651,
    "latitude": 22.9985868,
    "name": "台南大舞廳",
    "date": "2016-06-09T14:30:01.989Z"
  },
  {
    "visit": 6,
    "longitude": 120.22100732643,
    "latitude": 22.990755954617,
    "name": "飛饗創意西式料理-旗艦總店",
    "date": "2016-06-09T14:30:01.989Z"
  },
  {
    "visit": 6,
    "longitude": 120.21432935342,
    "latitude": 22.99653715876,
    "name": "香格里拉飯店38樓醉月樓",
    "date": "2016-06-09T14:30:01.989Z"
  },
  {
    "visit": 6,
    "longitude": 120.16316,
    "latitude": 22.99977,
    "name": "周氏蝦卷",
    "date": "2016-06-09T14:30:01.989Z"
  },
  {
    "visit": 7,
    "longitude": 120.19568,
    "latitude": 22.99061,
    "name": "南廠保安宮",
    "date": "2016-06-09T14:30:01.989Z"
  },
  {
    "visit": 7,
    "longitude": 120.21428,
    "latitude": 23.01436,
    "name": "大光教會",
    "date": "2016-06-09T14:30:01.989Z"
  },
  {
    "visit": 7,
    "longitude": 120.22294,
    "latitude": 23.00301,
    "name": "魚羊鮮豆咖啡館",
    "date": "2016-06-09T14:30:01.989Z"
  },
  {
    "visit": 7,
    "longitude": 120.25833909,
    "latitude": 23.03247518,
    "name": "永康 龍潭",
    "date": "2016-06-09T14:30:01.989Z"
  },
  {
    "visit": 7,
    "longitude": 120.17158,
    "latitude": 22.98429,
    "name": "台南市地方法院",
    "date": "2016-06-09T14:30:01.989Z"
  },
  {
    "visit": 7,
    "longitude": 120.21016,
    "latitude": 22.9956299,
    "name": "Focus 9F 斑鳩的窩",
    "date": "2016-06-09T14:30:01.989Z"
  },
  {
    "visit": 7,
    "longitude": 120.21560359044,
    "latitude": 22.997793962917,
    "name": "NCKU光復校區 成功廳",
    "date": "2016-06-09T14:30:01.989Z"
  },
  {
    "visit": 7,
    "longitude": 120.1843976016,
    "latitude": 22.98934843857,
    "name": "台南安麗體驗中心",
    "date": "2016-06-09T14:30:01.989Z"
  },
  {
    "visit": 7,
    "longitude": 120.2073,
    "latitude": 22.979,
    "name": "歡喜樓",
    "date": "2016-06-09T14:30:01.989Z"
  },
  {
    "visit": 7,
    "longitude": 120.19657,
    "latitude": 22.99935,
    "name": "慕紅豆",
    "date": "2016-06-09T14:30:01.989Z"
  },
  {
    "visit": 7,
    "longitude": 120.1995125448,
    "latitude": 22.993038994226,
    "name": "哈利早餐",
    "date": "2016-06-09T14:30:01.989Z"
  },
  {
    "visit": 7,
    "longitude": 120.24410973284,
    "latitude": 23.002881558206,
    "name": "永康公園",
    "date": "2016-06-09T14:30:01.989Z"
  },
  {
    "visit": 8,
    "longitude": 120.14720880956,
    "latitude": 22.990248722282,
    "name": "安平觀夕平臺",
    "date": "2016-06-09T14:30:01.989Z"
  },
  {
    "visit": 8,
    "longitude": 120.18938,
    "latitude": 22.9973,
    "name": "新臨安橋-台南彩虹橋",
    "date": "2016-06-09T14:30:01.989Z"
  },
  {
    "visit": 8,
    "longitude": 120.20423,
    "latitude": 22.98883,
    "name": "台南愛國婦人會館",
    "date": "2016-06-09T14:30:01.989Z"
  },
  {
    "visit": 8,
    "longitude": 120.2002396,
    "latitude": 22.99754461,
    "name": "悦津鹹粥",
    "date": "2016-06-09T14:30:01.989Z"
  },
  {
    "visit": 8,
    "longitude": 120.14285204014,
    "latitude": 22.993553442603,
    "name": "安平沙灘",
    "date": "2016-06-09T14:30:01.989Z"
  },
  {
    "visit": 9,
    "longitude": 120.25167,
    "latitude": 23.18872,
    "name": "壽喜屋",
    "date": "2016-06-09T14:30:01.989Z"
  },
  {
    "visit": 9,
    "longitude": 120.48197906667,
    "latitude": 22.888082504272,
    "name": "旗山技仔冰城總店",
    "date": "2016-06-09T14:30:01.989Z"
  },
  {
    "visit": 9,
    "longitude": 120.20972222222,
    "latitude": 22.975555555556,
    "name": "臺南市立體育場",
    "date": "2016-06-09T14:30:01.989Z"
  },
  {
    "visit": 9,
    "longitude": 120.210877855,
    "latitude": 22.99504133,
    "name": "D.D BEAR",
    "date": "2016-06-09T14:30:01.989Z"
  },
  {
    "visit": 9,
    "longitude": 120.2797001206,
    "latitude": 23.095919773004,
    "name": "聯華電子",
    "date": "2016-06-09T14:30:01.989Z"
  },
  {
    "visit": 9,
    "longitude": 120.22290319611,
    "latitude": 22.977009012109,
    "name": "台南崇德市場",
    "date": "2016-06-09T14:30:01.989Z"
  },
  {
    "visit": 9,
    "longitude": 120.23336128088,
    "latitude": 22.993401503218,
    "name": "Golden Bowling 黃金保齡球場",
    "date": "2016-06-09T14:30:01.989Z"
  },
  {
    "visit": 9,
    "longitude": 120.22109105269,
    "latitude": 22.982336017913,
    "name": "銀座日式料理",
    "date": "2016-06-09T14:30:01.989Z"
  },
  {
    "visit": 10,
    "longitude": 120.2192078,
    "latitude": 23.0021992,
    "name": "成大醫院",
    "date": "2016-06-09T14:30:01.989Z"
  },
  {
    "visit": 10,
    "longitude": 120.19173,
    "latitude": 22.98664,
    "name": "廣東沙茶爐",
    "date": "2016-06-09T14:30:01.989Z"
  },
  {
    "visit": 10,
    "longitude": 120.20154,
    "latitude": 22.99519,
    "name": "全美戲院",
    "date": "2016-06-09T14:30:01.989Z"
  },
  {
    "visit": 10,
    "longitude": 120.23315773008,
    "latitude": 22.990033587109,
    "name": "Momo Paradise 夢時代牧場",
    "date": "2016-06-09T14:30:01.989Z"
  },
  {
    "visit": 10,
    "longitude": 120.18773261116,
    "latitude": 23.007500481868,
    "name": "天成複合式主題館",
    "date": "2016-06-09T14:30:01.989Z"
  },
  {
    "visit": 10,
    "longitude": 120.47803158242,
    "latitude": 22.888631388837,
    "name": "旗山孔廟",
    "date": "2016-06-09T14:30:01.989Z"
  },
  {
    "visit": 10,
    "longitude": 120.20431,
    "latitude": 22.98574,
    "name": "迦南水果店",
    "date": "2016-06-09T14:30:01.989Z"
  },
  {
    "visit": 11,
    "longitude": 120.20207,
    "latitude": 22.99106,
    "name": "花川日式料理",
    "date": "2016-06-09T14:30:01.989Z"
  },
  {
    "visit": 11,
    "longitude": 120.156306149,
    "latitude": 22.992921180829,
    "name": "安平漁港",
    "date": "2016-06-09T14:30:01.989Z"
  },
  {
    "visit": 11,
    "longitude": 120.22123,
    "latitude": 22.9956299,
    "name": "KAFFE at HOME",
    "date": "2016-06-09T14:30:01.989Z"
  },
  {
    "visit": 11,
    "longitude": 120.19841,
    "latitude": 22.99398,
    "name": "JJ-W Hotel",
    "date": "2016-06-09T14:30:01.989Z"
  },
  {
    "visit": 11,
    "longitude": 120.221138,
    "latitude": 22.9953194,
    "name": "轉角餐廳 Corner Steak House",
    "date": "2016-06-09T14:30:01.989Z"
  },
  {
    "visit": 11,
    "longitude": 120.21456,
    "latitude": 22.99382,
    "name": "AJ Burger美式餐廳",
    "date": "2016-06-09T14:30:01.989Z"
  },
  {
    "visit": 11,
    "longitude": 120.19656153963,
    "latitude": 22.994845396489,
    "name": "Mumu白姆森林（美、義料理）",
    "date": "2016-06-09T14:30:01.989Z"
  },
  {
    "visit": 12,
    "longitude": 120.20983574071,
    "latitude": 22.97075290473,
    "name": "台南殯儀館",
    "date": "2016-06-09T14:30:01.989Z"
  },
  {
    "visit": 12,
    "longitude": 120.2540865,
    "latitude": 23.0300341,
    "name": "丹丹漢堡永康店",
    "date": "2016-06-09T14:30:01.989Z"
  },
  {
    "visit": 12,
    "longitude": 120.21846061554,
    "latitude": 22.995345825567,
    "name": "鬥牛士二鍋成大店",
    "date": "2016-06-09T14:30:01.989Z"
  },
  {
    "visit": 12,
    "longitude": 120.19200472423,
    "latitude": 22.996777059331,
    "name": "富邦金融中心",
    "date": "2016-06-09T14:30:01.989Z"
  },
  {
    "visit": 12,
    "longitude": 120.19949022102,
    "latitude": 22.995107637143,
    "name": "花見宇治抹茶甘味処",
    "date": "2016-06-09T14:30:01.989Z"
  },
  {
    "visit": 13,
    "longitude": 120.2015513192,
    "latitude": 22.996713532721,
    "name": "全臺祀典大天后宮",
    "date": "2016-06-09T14:30:01.989Z"
  },
  {
    "visit": 13,
    "longitude": 120.20828191015,
    "latitude": 23.000280946257,
    "name": "紅狼美式酒吧",
    "date": "2016-06-09T14:30:01.989Z"
  },
  {
    "visit": 13,
    "longitude": 120.16485277778,
    "latitude": 22.993477777778,
    "name": "Anping District",
    "date": "2016-06-09T14:30:01.989Z"
  },
  {
    "visit": 13,
    "longitude": 120.22685895897,
    "latitude": 22.998394782262,
    "name": "夫妻肺片-台南東和店",
    "date": "2016-06-09T14:30:01.989Z"
  },
  {
    "visit": 13,
    "longitude": 120.2273399,
    "latitude": 22.9591703,
    "name": "金滿座複合式釣蝦場",
    "date": "2016-06-09T14:30:01.989Z"
  },
  {
    "visit": 13,
    "longitude": 120.25086971588,
    "latitude": 23.03161715053,
    "name": "台南永康歐洲世界",
    "date": "2016-06-09T14:30:01.989Z"
  },
  {
    "visit": 13,
    "longitude": 120.2101593,
    "latitude": 22.9956303,
    "name": "Focus 11F 二鍋(壽喜燒)",
    "date": "2016-06-09T14:30:01.989Z"
  },
  {
    "visit": 14,
    "longitude": 120.2094579,
    "latitude": 22.9956648,
    "name": "南方公園-森菓鯛魚燒霜淇淋",
    "date": "2016-06-09T14:30:01.989Z"
  },
  {
    "visit": 14,
    "longitude": 120.1879653,
    "latitude": 23.0077551,
    "name": "天成複合式釣蝦埸",
    "date": "2016-06-09T14:30:01.989Z"
  },
  {
    "visit": 14,
    "longitude": 120.20813,
    "latitude": 23.0002299,
    "name": "Red Wolf Taven LIVe Music PUB",
    "date": "2016-06-09T14:30:01.989Z"
  },
  {
    "visit": 14,
    "longitude": 120.20677690043,
    "latitude": 22.985030044598,
    "name": "台南大學文薈樓",
    "date": "2016-06-09T14:30:01.989Z"
  },
  {
    "visit": 15,
    "longitude": 120.22650837005,
    "latitude": 23.031447811711,
    "name": "HONDA永康店",
    "date": "2016-06-09T14:30:01.989Z"
  },
  {
    "visit": 15,
    "longitude": 120.2217902,
    "latitude": 22.9799581,
    "name": "德光監獄大牢",
    "date": "2016-06-09T14:30:01.989Z"
  },
  {
    "visit": 15,
    "longitude": 120.2160109703,
    "latitude": 22.985807155289,
    "name": "Kadoya喫茶店",
    "date": "2016-06-09T14:30:01.989Z"
  },
  {
    "visit": 15,
    "longitude": 120.22693805104,
    "latitude": 23.002116403526,
    "name": "永林牛肉火鍋 台灣台南美食綜合料理 Tainan, Taiwan Local Delicious food: Yonlin Restaurant",
    "date": "2016-06-09T14:30:01.989Z"
  },
  {
    "visit": 16,
    "longitude": 120.2041,
    "latitude": 22.99374,
    "name": "台南天壇－天公廟",
    "date": "2016-06-09T14:30:01.989Z"
  },
  {
    "visit": 16,
    "longitude": 120.14699658705,
    "latitude": 22.989819453777,
    "name": "安平觀夕平台 Anping Sunset Platform",
    "date": "2016-06-09T14:30:01.989Z"
  },
  {
    "visit": 16,
    "longitude": 120.19763413239,
    "latitude": 22.993611368859,
    "name": "Chiuanhouse",
    "date": "2016-06-09T14:30:01.989Z"
  },
  {
    "visit": 16,
    "longitude": 120.19615299984,
    "latitude": 23.001582749048,
    "name": "Mr.wheat 小麥先生創意料理 - 台南金華店",
    "date": "2016-06-09T14:30:01.989Z"
  },
  {
    "visit": 16,
    "longitude": 120.29494,
    "latitude": 23.13015,
    "name": "新萬香餐廳",
    "date": "2016-06-09T14:30:01.989Z"
  },
  {
    "visit": 16,
    "longitude": 120.1868240837,
    "latitude": 22.982149893893,
    "name": "木匠炭火燒肉",
    "date": "2016-06-09T14:30:01.989Z"
  },
  {
    "visit": 16,
    "longitude": 120.21382708233,
    "latitude": 23.003583742246,
    "name": "刺客炭火燒肉",
    "date": "2016-06-09T14:30:01.989Z"
  },
  {
    "visit": 16,
    "longitude": 120.21052887689,
    "latitude": 22.994172996672,
    "name": "萬昌起義",
    "date": "2016-06-09T14:30:01.989Z"
  },
  {
    "visit": 16,
    "longitude": 120.19769,
    "latitude": 22.99334,
    "name": "江水號",
    "date": "2016-06-09T14:30:01.989Z"
  },
  {
    "visit": 16,
    "longitude": 120.2820996,
    "latitude": 23.09880685,
    "name": "星巴克 - 南科門市",
    "date": "2016-06-09T14:30:01.989Z"
  },
  {
    "visit": 16,
    "longitude": 120.19508,
    "latitude": 22.98783,
    "name": "東京益田日本料理",
    "date": "2016-06-09T14:30:01.989Z"
  },
  {
    "visit": 17,
    "longitude": 120.2419,
    "latitude": 22.9868099,
    "name": "忠味麵店",
    "date": "2016-06-09T14:30:01.989Z"
  },
  {
    "visit": 17,
    "longitude": 120.20493,
    "latitude": 22.98466,
    "name": "I - Mita 愛米塔。早午餐。輕食。蜜塔。",
    "date": "2016-06-09T14:30:01.989Z"
  },
  {
    "visit": 18,
    "longitude": 120.23401475527,
    "latitude": 22.99588294623,
    "name": "World Gym 國賓店",
    "date": "2016-06-09T14:30:01.989Z"
  },
  {
    "visit": 19,
    "longitude": 120.19876017363,
    "latitude": 22.986752747775,
    "name": "台南新光三越西門店花月嵐拉麵",
    "date": "2016-06-09T14:30:01.989Z"
  },
  {
    "visit": 19,
    "longitude": 120.17445042125,
    "latitude": 22.990767569571,
    "name": "台南綠色空間永華店",
    "date": "2016-06-09T14:30:01.989Z"
  },
  {
    "visit": 19,
    "longitude": 120.18925633512,
    "latitude": 22.989678207079,
    "name": "神田日本料理",
    "date": "2016-06-09T14:30:01.989Z"
  },
  {
    "visit": 19,
    "longitude": 120.21306038132,
    "latitude": 22.989398637653,
    "name": "Tainan Sin Lau hospital",
    "date": "2016-06-09T14:30:01.989Z"
  },
  {
    "visit": 20,
    "longitude": 120.18655181945,
    "latitude": 22.986777392356,
    "name": "輕井澤【鍋の物】台南店",
    "date": "2016-06-09T14:30:01.989Z"
  },
  {
    "visit": 20,
    "longitude": 120.22342,
    "latitude": 22.9935,
    "name": "開普三號店 CAPE CAFE 3",
    "date": "2016-06-09T14:30:01.989Z"
  },
  {
    "visit": 21,
    "longitude": 120.1938015,
    "latitude": 23.0099397,
    "name": "好事多COSTCO",
    "date": "2016-06-09T14:30:01.989Z"
  },
  {
    "visit": 21,
    "longitude": 120.22202,
    "latitude": 23.02062,
    "name": "奇美醫院- Chi Mei Hospital",
    "date": "2016-06-09T14:30:01.989Z"
  },
  {
    "visit": 21,
    "longitude": 120.19913996231,
    "latitude": 23.045362014124,
    "name": "台南市果菜批發市場",
    "date": "2016-06-09T14:30:01.989Z"
  },
  {
    "visit": 21,
    "longitude": 120.19794,
    "latitude": 22.98834,
    "name": "台南錢櫃西門店",
    "date": "2016-06-09T14:30:01.989Z"
  },
  {
    "visit": 22,
    "longitude": 120.22185559466,
    "latitude": 22.989340099854,
    "name": "私立長榮高級中學 Chang Jung Senior High School",
    "date": "2016-06-09T14:30:01.989Z"
  },
  {
    "visit": 22,
    "longitude": 120.2041,
    "latitude": 22.99374,
    "name": "台灣首廟天壇天公廟",
    "date": "2016-06-09T14:30:01.989Z"
  },
  {
    "visit": 22,
    "longitude": 120.22346,
    "latitude": 22.98032,
    "name": "薄多義崇學店",
    "date": "2016-06-09T14:30:01.989Z"
  },
  {
    "visit": 22,
    "longitude": 120.21286576434,
    "latitude": 22.979503641,
    "name": "香圃麵店",
    "date": "2016-06-09T14:30:01.989Z"
  },
  {
    "visit": 23,
    "longitude": 120.20204,
    "latitude": 22.99692,
    "name": "山根壽司",
    "date": "2016-06-09T14:30:01.989Z"
  },
  {
    "visit": 23,
    "longitude": 120.21526,
    "latitude": 22.98879,
    "name": "毛丼 丼飯專門店",
    "date": "2016-06-09T14:30:01.989Z"
  },
  {
    "visit": 23,
    "longitude": 120.24122803658,
    "latitude": 23.184890240688,
    "name": "台南麻豆碗粿蘭",
    "date": "2016-06-09T14:30:01.989Z"
  },
  {
    "visit": 23,
    "longitude": 120.2101505,
    "latitude": 22.9957717,
    "name": "卡不里pizza 義式餐廳",
    "date": "2016-06-09T14:30:01.989Z"
  },
  {
    "visit": 24,
    "longitude": 120.25358891503,
    "latitude": 23.038462654754,
    "name": "永康火車站 Yongkang Station",
    "date": "2016-06-09T14:30:01.989Z"
  },
  {
    "visit": 24,
    "longitude": 120.228,
    "latitude": 22.98987,
    "name": "俗俗賣芒果牛奶冰",
    "date": "2016-06-09T14:30:01.989Z"
  },
  {
    "visit": 24,
    "longitude": 120.22092777778,
    "latitude": 22.973822222222,
    "name": "德安百貨台南店",
    "date": "2016-06-09T14:30:01.989Z"
  },
  {
    "visit": 24,
    "longitude": 120.19702,
    "latitude": 22.99833,
    "name": "阿江鱔魚",
    "date": "2016-06-09T14:30:01.989Z"
  },
  {
    "visit": 24,
    "longitude": 120.16334912908,
    "latitude": 23.000192375721,
    "name": "台南安平古堡老街",
    "date": "2016-06-09T14:30:01.989Z"
  },
  {
    "visit": 24,
    "longitude": 120.20556460294,
    "latitude": 22.985204217647,
    "name": "Tainan City,taiwan ROC",
    "date": "2016-06-09T14:30:01.989Z"
  },
  {
    "visit": 25,
    "longitude": 120.30165258872,
    "latitude": 23.077691096642,
    "name": "Dartwits Dormitory No.1 Guoji Road Shinsi District Tainan City Taiwan",
    "date": "2016-06-09T14:30:01.989Z"
  },
  {
    "visit": 25,
    "longitude": 120.22859836008,
    "latitude": 22.9905583,
    "name": "伊都日本料理",
    "date": "2016-06-09T14:30:01.989Z"
  },
  {
    "visit": 25,
    "longitude": 120.17265,
    "latitude": 22.99114,
    "name": "Daylight光合箱子",
    "date": "2016-06-09T14:30:01.989Z"
  },
  {
    "visit": 25,
    "longitude": 120.2336752,
    "latitude": 22.9912468,
    "name": "跳舞香水 南紡夢時代",
    "date": "2016-06-09T14:30:01.989Z"
  },
  {
    "visit": 26,
    "longitude": 120.22057687337,
    "latitude": 22.9922225016,
    "name": "韓朝 東寧店",
    "date": "2016-06-09T14:30:01.989Z"
  },
  {
    "visit": 27,
    "longitude": 120.22367643468,
    "latitude": 22.980259029458,
    "name": "薄多義bite 2 Eat台南祟學店",
    "date": "2016-06-09T14:30:01.989Z"
  },
  {
    "visit": 28,
    "longitude": 120.26010532843,
    "latitude": 23.19016737779,
    "name": "麻豆代天府之十八層地獄",
    "date": "2016-06-09T14:30:01.989Z"
  },
  {
    "visit": 28,
    "longitude": 120.16086967485,
    "latitude": 23.000506180217,
    "name": "安平開台天后宮",
    "date": "2016-06-09T14:30:01.989Z"
  },
  {
    "visit": 28,
    "longitude": 120.48392960005,
    "latitude": 22.88294067157,
    "name": "旗山",
    "date": "2016-06-09T14:30:01.989Z"
  },
  {
    "visit": 29,
    "longitude": 120.21083,
    "latitude": 22.99715,
    "name": "台南大飯店 Hotel Tainan",
    "date": "2016-06-09T14:30:01.989Z"
  },
  {
    "visit": 29,
    "longitude": 120.22115,
    "latitude": 22.99579,
    "name": "庫肯花園",
    "date": "2016-06-09T14:30:01.989Z"
  },
  {
    "visit": 29,
    "longitude": 120.24806508478,
    "latitude": 23.183110966778,
    "name": "台南巿麻豆區",
    "date": "2016-06-09T14:30:01.989Z"
  },
  {
    "visit": 30,
    "longitude": 120.21543509477,
    "latitude": 23.040711711082,
    "name": "大安順ktv",
    "date": "2016-06-09T14:30:01.989Z"
  },
  {
    "visit": 30,
    "longitude": 120.2614,
    "latitude": 23.02365,
    "name": "海中寶中華料理餐廳",
    "date": "2016-06-09T14:30:01.989Z"
  },
  {
    "visit": 30,
    "longitude": 120.21793,
    "latitude": 22.9917,
    "name": "波哥茶飲(台南勝利店)",
    "date": "2016-06-09T14:30:01.989Z"
  },
  {
    "visit": 30,
    "longitude": 120.20315,
    "latitude": 22.99505,
    "name": "台南阿美飯店",
    "date": "2016-06-09T14:30:01.989Z"
  },
  {
    "visit": 31,
    "longitude": 120.19497012363,
    "latitude": 22.986138981812,
    "name": "夏林海鮮碳烤",
    "date": "2016-06-09T14:30:01.989Z"
  },
  {
    "visit": 32,
    "longitude": 120.22494,
    "latitude": 23.02999,
    "name": "LEXUS台南所",
    "date": "2016-06-09T14:30:01.989Z"
  },
  {
    "visit": 32,
    "longitude": 120.20673511467,
    "latitude": 22.999781843777,
    "name": "台南市天公廟(開基玉皇宮)",
    "date": "2016-06-09T14:30:01.989Z"
  },
  {
    "visit": 32,
    "longitude": 120.22130284575,
    "latitude": 22.979366799069,
    "name": "天主教德光中學",
    "date": "2016-06-09T14:30:01.989Z"
  },
  {
    "visit": 32,
    "longitude": 120.2331082478,
    "latitude": 22.990812924633,
    "name": "藍屋おいや和風御膳-南紡夢時代",
    "date": "2016-06-09T14:30:01.989Z"
  },
  {
    "visit": 32,
    "longitude": 120.21253823351,
    "latitude": 22.99895734514,
    "name": "統聯客運 北門站",
    "date": "2016-06-09T14:30:01.989Z"
  },
  {
    "visit": 33,
    "longitude": 120.22046822125,
    "latitude": 23.001468884115,
    "name": "成功大學成杏廳",
    "date": "2016-06-09T14:30:01.989Z"
  },
  {
    "visit": 34,
    "longitude": 120.23413,
    "latitude": 22.99545,
    "name": "國賓影城 Ambassador Theatres",
    "date": "2016-06-09T14:30:01.989Z"
  },
  {
    "visit": 34,
    "longitude": 120.20543,
    "latitude": 22.99391,
    "name": "信燒烤",
    "date": "2016-06-09T14:30:01.989Z"
  },
  {
    "visit": 35,
    "longitude": 120.20519782594,
    "latitude": 22.99010517545,
    "name": "孔廟老街",
    "date": "2016-06-09T14:30:01.989Z"
  },
  {
    "visit": 35,
    "longitude": 120.186338,
    "latitude": 22.9854133,
    "name": "台南南區",
    "date": "2016-06-09T14:30:01.989Z"
  },
  {
    "visit": 35,
    "longitude": 120.214758,
    "latitude": 22.9937616,
    "name": "黑工號 嫩仙草",
    "date": "2016-06-09T14:30:01.989Z"
  },
  {
    "visit": 36,
    "longitude": 120.1474464754,
    "latitude": 22.997215896129,
    "name": "海之味海產餐廳 - 旗艦店",
    "date": "2016-06-09T14:30:01.989Z"
  },
  {
    "visit": 37,
    "longitude": 120.20927,
    "latitude": 22.9957,
    "name": "South Park南方公園",
    "date": "2016-06-09T14:30:01.989Z"
  },
  {
    "visit": 37,
    "longitude": 120.22328,
    "latitude": 22.98706,
    "name": "比薩茶坊",
    "date": "2016-06-09T14:30:01.989Z"
  },
  {
    "visit": 37,
    "longitude": 120.18932,
    "latitude": 22.99203,
    "name": "多一點咖啡館-台南美學館-品牌特許授權店",
    "date": "2016-06-09T14:30:01.989Z"
  },
  {
    "visit": 38,
    "longitude": 120.16894397748,
    "latitude": 22.998947854139,
    "name": "王氏魚皮",
    "date": "2016-06-09T14:30:01.989Z"
  },
  {
    "visit": 38,
    "longitude": 120.25188,
    "latitude": 23.02915,
    "name": "聯盈發點心專門店",
    "date": "2016-06-09T14:30:01.989Z"
  },
  {
    "visit": 38,
    "longitude": 120.22857,
    "latitude": 23.00394,
    "name": "千畦種子博物館",
    "date": "2016-06-09T14:30:01.989Z"
  },
  {
    "visit": 39,
    "longitude": 120.2661,
    "latitude": 23.0133,
    "name": "台南市永康區大灣",
    "date": "2016-06-09T14:30:01.989Z"
  },
  {
    "visit": 40,
    "longitude": 120.17461,
    "latitude": 22.99818,
    "name": "台南周氏蝦捲總店",
    "date": "2016-06-09T14:30:01.989Z"
  },
  {
    "visit": 40,
    "longitude": 120.22245524085,
    "latitude": 22.97311027656,
    "name": "巴克禮紀念公園",
    "date": "2016-06-09T14:30:01.989Z"
  },
  {
    "visit": 45,
    "longitude": 120.19768239964,
    "latitude": 22.993561897255,
    "name": "邱家傳統小吃小卷米粉",
    "date": "2016-06-09T14:30:01.989Z"
  },
  {
    "visit": 46,
    "longitude": 120.29771856161,
    "latitude": 23.127657065826,
    "name": "善化夜市",
    "date": "2016-06-09T14:30:01.989Z"
  },
  {
    "visit": 46,
    "longitude": 120.14776580047,
    "latitude": 22.992089716739,
    "name": "安平國際遊艇碼頭",
    "date": "2016-06-09T14:30:01.989Z"
  },
  {
    "visit": 46,
    "longitude": 120.1862869,
    "latitude": 22.9779606,
    "name": "是吉祥火鍋",
    "date": "2016-06-09T14:30:01.989Z"
  },
  {
    "visit": 48,
    "longitude": 120.21666666667,
    "latitude": 23,
    "name": "National Cheng Kung University",
    "date": "2016-06-09T14:30:01.989Z"
  },
  {
    "visit": 48,
    "longitude": 120.17137860457,
    "latitude": 22.985076631953,
    "name": "台南地方法院檢察署",
    "date": "2016-06-09T14:30:01.989Z"
  },
  {
    "visit": 48,
    "longitude": 120.21722757835,
    "latitude": 22.996498061546,
    "name": "國立成功大學",
    "date": "2016-06-09T14:30:01.989Z"
  },
  {
    "visit": 49,
    "longitude": 120.2075155,
    "latitude": 22.9857107,
    "name": "台南大學",
    "date": "2016-06-09T14:30:01.989Z"
  },
  {
    "visit": 50,
    "longitude": 120.17520222568,
    "latitude": 22.991724971335,
    "name": "富霖宴會場•華平館",
    "date": "2016-06-09T14:30:01.989Z"
  },
  {
    "visit": 50,
    "longitude": 120.19343913971,
    "latitude": 23.010363926672,
    "name": "Costco 台南店",
    "date": "2016-06-09T14:30:01.989Z"
  },
  {
    "visit": 51,
    "longitude": 120.19637416831,
    "latitude": 22.997658165585,
    "name": "神農街",
    "date": "2016-06-09T14:30:01.989Z"
  },
  {
    "visit": 51,
    "longitude": 120.21837771527,
    "latitude": 22.981626854754,
    "name": "台南監理站",
    "date": "2016-06-09T14:30:01.989Z"
  },
  {
    "visit": 51,
    "longitude": 120.20863,
    "latitude": 23.01757,
    "name": "榮星餐廳",
    "date": "2016-06-09T14:30:01.989Z"
  },
  {
    "visit": 53,
    "longitude": 120.17490645118,
    "latitude": 22.998079110914,
    "name": "台南安平周式煆捲",
    "date": "2016-06-09T14:30:01.989Z"
  },
  {
    "visit": 54,
    "longitude": 120.1853837296,
    "latitude": 23.009899057119,
    "name": "台南市旗哥牛肉湯",
    "date": "2016-06-09T14:30:01.989Z"
  },
  {
    "visit": 55,
    "longitude": 120.28927963022,
    "latitude": 23.13676743634,
    "name": "善化多功能活動中心",
    "date": "2016-06-09T14:30:01.989Z"
  },
  {
    "visit": 55,
    "longitude": 120.18817548552,
    "latitude": 22.992244498297,
    "name": "台南美學館",
    "date": "2016-06-09T14:30:01.989Z"
  },
  {
    "visit": 56,
    "longitude": 120.08797711639,
    "latitude": 23.211039753914,
    "name": "馬沙溝將軍魚港",
    "date": "2016-06-09T14:30:01.989Z"
  },
  {
    "visit": 56,
    "longitude": 120.2050849974,
    "latitude": 22.996828678508,
    "name": "美樂蒂中成店VIP包廂",
    "date": "2016-06-09T14:30:01.989Z"
  },
  {
    "visit": 56,
    "longitude": 120.22994099802,
    "latitude": 22.97211987268,
    "name": "六年甲班 - 崇善店",
    "date": "2016-06-09T14:30:01.989Z"
  },
  {
    "visit": 57,
    "longitude": 120.22585346755,
    "latitude": 22.995572865223,
    "name": "台南市立後甲國民中學",
    "date": "2016-06-09T14:30:01.989Z"
  },
  {
    "visit": 58,
    "longitude": 120.20041416376,
    "latitude": 22.994201004548,
    "name": "冰鄉",
    "date": "2016-06-09T14:30:01.989Z"
  },
  {
    "visit": 58,
    "longitude": 120.20357765191,
    "latitude": 23.004599047056,
    "name": "台南市大潤發臨安店",
    "date": "2016-06-09T14:30:01.989Z"
  },
  {
    "visit": 61,
    "longitude": 120.22554715615,
    "latitude": 22.934710000308,
    "name": "台南白宮～奇美博物館",
    "date": "2016-06-09T14:30:01.989Z"
  },
  {
    "visit": 62,
    "longitude": 120.3077,
    "latitude": 23.0345,
    "name": "台南-新化老街",
    "date": "2016-06-09T14:30:01.989Z"
  },
  {
    "visit": 64,
    "longitude": 120.1680442,
    "latitude": 22.9865629,
    "name": "In STYLE hair studio",
    "date": "2016-06-09T14:30:01.989Z"
  },
  {
    "visit": 65,
    "longitude": 120.18749770464,
    "latitude": 22.989044430676,
    "name": "石頭火鍋(台南永華店)",
    "date": "2016-06-09T14:30:01.989Z"
  },
  {
    "visit": 71,
    "longitude": 120.1534450108,
    "latitude": 23.000111199536,
    "name": "台南四草濕地（台江國家公園）綠色隧道",
    "date": "2016-06-09T14:30:01.989Z"
  },
  {
    "visit": 72,
    "longitude": 120.2100688535,
    "latitude": 22.995789099976,
    "name": "Focus時尚流行館",
    "date": "2016-06-09T14:30:01.989Z"
  },
  {
    "visit": 76,
    "longitude": 120.23323059082,
    "latitude": 22.990839004517,
    "name": "牛角-南紡夢時代",
    "date": "2016-06-09T14:30:01.989Z"
  },
  {
    "visit": 78,
    "longitude": 120.20517827393,
    "latitude": 22.982567423057,
    "name": "懷舊小棧 - 五妃廟口豆腐冰",
    "date": "2016-06-09T14:30:01.989Z"
  },
  {
    "visit": 78,
    "longitude": 120.1948633,
    "latitude": 22.9892868,
    "name": "六千牛肉湯",
    "date": "2016-06-09T14:30:01.989Z"
  },
  {
    "visit": 82,
    "longitude": 120.08330892488,
    "latitude": 23.218290256758,
    "name": "馬沙溝海水浴場 Masago Beach",
    "date": "2016-06-09T14:30:01.989Z"
  },
  {
    "visit": 84,
    "longitude": 120.21313,
    "latitude": 22.99242,
    "name": "臺南知事官邸",
    "date": "2016-06-09T14:30:01.989Z"
  },
  {
    "visit": 90,
    "longitude": 120.17729218584,
    "latitude": 23.167480133857,
    "name": "北門高中",
    "date": "2016-06-09T14:30:01.989Z"
  },
  {
    "visit": 92,
    "longitude": 120.18570852685,
    "latitude": 22.998042744245,
    "name": "台南市安平區運河",
    "date": "2016-06-09T14:30:01.989Z"
  },
  {
    "visit": 93,
    "longitude": 120.26278417842,
    "latitude": 23.018926752813,
    "name": "永大夜巿",
    "date": "2016-06-09T14:30:01.989Z"
  },
  {
    "visit": 97,
    "longitude": 120.18658900007,
    "latitude": 22.986884329,
    "name": "輕井澤鍋物 台南店",
    "date": "2016-06-09T14:30:01.989Z"
  },
  {
    "visit": 98,
    "longitude": 120.21429077317,
    "latitude": 22.996495579963,
    "name": "Shangri-La Tainan 香格里拉台南遠東國際大飯店",
    "date": "2016-06-09T14:30:01.989Z"
  },
  {
    "visit": 99,
    "longitude": 120.19726951584,
    "latitude": 22.994355840866,
    "name": "蜷尾家 甘味处。。。散步甜食",
    "date": "2016-06-09T14:30:01.989Z"
  },
  {
    "visit": 99,
    "longitude": 120.20705,
    "latitude": 22.99271,
    "name": "OA Studio",
    "date": "2016-06-09T14:30:01.989Z"
  },
  {
    "visit": 101,
    "longitude": 120.20981575793,
    "latitude": 22.995100521131,
    "name": "新光三越 台南中山店",
    "date": "2016-06-09T14:30:01.989Z"
  },
  {
    "visit": 107,
    "longitude": 120.19793,
    "latitude": 22.98777,
    "name": "Tayih Landis Hotel Tainan 台南大億麗緻酒店",
    "date": "2016-06-09T14:30:01.989Z"
  },
  {
    "visit": 107,
    "longitude": 120.19676882194,
    "latitude": 22.997497336567,
    "name": "台南市神農街",
    "date": "2016-06-09T14:30:01.989Z"
  },
  {
    "visit": 110,
    "longitude": 120.24263749071,
    "latitude": 23.043689602214,
    "name": "桂田酒店－阿力海百匯自助餐廳",
    "date": "2016-06-09T14:30:01.989Z"
  },
  {
    "visit": 111,
    "longitude": 120.19779852834,
    "latitude": 22.988344489012,
    "name": "錢櫃",
    "date": "2016-06-09T14:30:01.989Z"
  },
  {
    "visit": 128,
    "longitude": 120.21469788285,
    "latitude": 22.996140271894,
    "name": "香格里拉飯店B2F遠東宴會廳",
    "date": "2016-06-09T14:30:01.989Z"
  },
  {
    "visit": 144,
    "longitude": 120.1971893,
    "latitude": 22.9944401,
    "name": "泰成水果店",
    "date": "2016-06-09T14:30:01.989Z"
  },
  {
    "visit": 149,
    "longitude": 120.19935552132,
    "latitude": 22.987762026228,
    "name": "Silks Place Tainan 台南晶英酒店",
    "date": "2016-06-09T14:30:01.989Z"
  },
  {
    "visit": 167,
    "longitude": 120.16729,
    "latitude": 22.99894,
    "name": "安平古堡",
    "date": "2016-06-09T14:30:01.989Z"
  },
  {
    "visit": 170,
    "longitude": 120.1976860957,
    "latitude": 22.993864149254,
    "name": "國華街淺草青春新天地",
    "date": "2016-06-09T14:30:01.989Z"
  },
  {
    "visit": 197,
    "longitude": 120.161134,
    "latitude": 23.003993,
    "name": "臺南安平老街",
    "date": "2016-06-09T14:30:01.989Z"
  },
  {
    "visit": 213,
    "longitude": 120.1876511,
    "latitude": 22.9890909,
    "name": "Omaya春川炒雞台南永華店",
    "date": "2016-06-09T14:30:01.989Z"
  },
  {
    "visit": 219,
    "longitude": 120.2025,
    "latitude": 22.9918055556,
    "name": "Hayashi Department Store",
    "date": "2016-06-09T14:30:01.989Z"
  },
  {
    "visit": 224,
    "longitude": 120.19821037581,
    "latitude": 22.98739150113,
    "name": "台南新光三越新天地-新光影城",
    "date": "2016-06-09T14:30:01.989Z"
  },
  {
    "visit": 243,
    "longitude": 120.18382,
    "latitude": 22.99347,
    "name": "碳佐麻里 -府前店",
    "date": "2016-06-09T14:30:01.989Z"
  },
  {
    "visit": 254,
    "longitude": 120.08332497859,
    "latitude": 23.218327424711,
    "name": "馬沙溝濱海遊憩區",
    "date": "2016-06-09T14:30:01.989Z"
  },
  {
    "visit": 274,
    "longitude": 120.20618754185,
    "latitude": 22.995549850652,
    "name": "台南大遠百-華納威秀",
    "date": "2016-06-09T14:30:01.989Z"
  },
  {
    "visit": 291,
    "longitude": 120.1978,
    "latitude": 22.9868099,
    "name": "新光影城",
    "date": "2016-06-09T14:30:01.989Z"
  },
  {
    "visit": 330,
    "longitude": 120.21880026234,
    "latitude": 22.982623470927,
    "name": "大東夜市",
    "date": "2016-06-09T14:30:01.989Z"
  },
  {
    "visit": 556,
    "longitude": 120.23293733967,
    "latitude": 22.99103966379,
    "name": "\"台南南紡\"夢時代購物中心",
    "date": "2016-06-09T14:30:01.989Z"
  },
  {
    "visit": 576,
    "longitude": 120.19863961208,
    "latitude": 22.987050210035,
    "name": "新光三越 台南西門店",
    "date": "2016-06-09T14:30:01.989Z"
  },
  {
    "visit": 576,
    "longitude": 120.19858368,
    "latitude": 22.98767847,
    "name": "稻禾烏龍麵inaka-台南新光三越小西門店",
    "date": "2016-06-09T14:30:01.989Z"
  },
  {
    "visit": 593,
    "longitude": 120.23308607346,
    "latitude": 22.990726758622,
    "name": "南紡夢時代-華納影城",
    "date": "2016-06-09T14:30:01.989Z"
  },
  {
    "visit": 656,
    "longitude": 120.16080528271,
    "latitude": 23.001228038111,
    "name": "台南市安平古堡&老街",
    "date": "2016-06-09T14:30:01.989Z"
  }
]