[
  {
    "visit": 1,
    "longitude": 120.48065,
    "latitude": 22.8883,
    "name": "旗山國小",
    "date": "2016-06-07T06:30:01.763Z"
  },
  {
    "visit": 1,
    "longitude": 120.16334912908,
    "latitude": 23.000192375721,
    "name": "台南安平古堡老街",
    "date": "2016-06-07T06:30:01.763Z"
  },
  {
    "visit": 1,
    "longitude": 120.2100688535,
    "latitude": 22.995789099976,
    "name": "Focus時尚流行館",
    "date": "2016-06-07T06:30:01.763Z"
  },
  {
    "visit": 1,
    "longitude": 120.08330892488,
    "latitude": 23.218290256758,
    "name": "馬沙溝海水浴場 Masago Beach",
    "date": "2016-06-07T06:30:01.763Z"
  },
  {
    "visit": 1,
    "longitude": 120.20556460294,
    "latitude": 22.985204217647,
    "name": "Tainan City,taiwan ROC",
    "date": "2016-06-07T06:30:01.763Z"
  },
  {
    "visit": 1,
    "longitude": 120.21405833306,
    "latitude": 22.996547619391,
    "name": "台南香格里拉10樓遠東咖啡廳",
    "date": "2016-06-07T06:30:01.763Z"
  },
  {
    "visit": 1,
    "longitude": 120.19652951454,
    "latitude": 23.042438796992,
    "name": "台南安南區",
    "date": "2016-06-07T06:30:01.763Z"
  },
  {
    "visit": 1,
    "longitude": 120.2026722792,
    "latitude": 22.991183237819,
    "name": "聚 北海道昆布鍋",
    "date": "2016-06-07T06:30:01.763Z"
  },
  {
    "visit": 1,
    "longitude": 120.19047941665,
    "latitude": 22.9728283,
    "name": "日新國小",
    "date": "2016-06-07T06:30:01.763Z"
  },
  {
    "visit": 1,
    "longitude": 120.17490645118,
    "latitude": 22.998079110914,
    "name": "台南安平周式煆捲",
    "date": "2016-06-07T06:30:01.763Z"
  },
  {
    "visit": 1,
    "longitude": 120.21150978657,
    "latitude": 22.989533475104,
    "name": "Map北門形象館",
    "date": "2016-06-07T06:30:01.763Z"
  },
  {
    "visit": 1,
    "longitude": 120.151474,
    "latitude": 22.9931731,
    "name": "國立臺南高級海事水產職業學校",
    "date": "2016-06-07T06:30:01.763Z"
  },
  {
    "visit": 1,
    "longitude": 120.28041299404,
    "latitude": 23.09468755166,
    "name": "瀚宇彩晶",
    "date": "2016-06-07T06:30:01.763Z"
  },
  {
    "visit": 1,
    "longitude": 120.2797001206,
    "latitude": 23.095919773004,
    "name": "聯華電子",
    "date": "2016-06-07T06:30:01.763Z"
  },
  {
    "visit": 1,
    "longitude": 120.30747,
    "latitude": 23.0378599,
    "name": "楊逵文學紀念館",
    "date": "2016-06-07T06:30:01.763Z"
  },
  {
    "visit": 1,
    "longitude": 120.20459586403,
    "latitude": 22.993588351473,
    "name": "台南市日治時代居酒屋-鶯料理",
    "date": "2016-06-07T06:30:01.763Z"
  },
  {
    "visit": 1,
    "longitude": 120.22685895897,
    "latitude": 22.998394782262,
    "name": "夫妻肺片-台南東和店",
    "date": "2016-06-07T06:30:01.763Z"
  },
  {
    "visit": 1,
    "longitude": 120.25371067075,
    "latitude": 22.997219158292,
    "name": "崑山科技大學-I棟",
    "date": "2016-06-07T06:30:01.763Z"
  },
  {
    "visit": 1,
    "longitude": 120.2160109703,
    "latitude": 22.985807155289,
    "name": "Kadoya喫茶店",
    "date": "2016-06-07T06:30:01.763Z"
  },
  {
    "visit": 1,
    "longitude": 120.47803158242,
    "latitude": 22.888631388837,
    "name": "旗山孔廟",
    "date": "2016-06-07T06:30:01.763Z"
  },
  {
    "visit": 1,
    "longitude": 120.19769,
    "latitude": 22.99334,
    "name": "江水號",
    "date": "2016-06-07T06:30:01.763Z"
  },
  {
    "visit": 1,
    "longitude": 120.213888889,
    "latitude": 22.9886111111,
    "name": "Tainan Theological College and Seminary",
    "date": "2016-06-07T06:30:01.763Z"
  },
  {
    "visit": 1,
    "longitude": 120.25086971588,
    "latitude": 23.03161715053,
    "name": "台南永康歐洲世界",
    "date": "2016-06-07T06:30:01.763Z"
  },
  {
    "visit": 1,
    "longitude": 120.19949022102,
    "latitude": 22.995107637143,
    "name": "花見宇治抹茶甘味処",
    "date": "2016-06-07T06:30:01.763Z"
  },
  {
    "visit": 1,
    "longitude": 120.19763413239,
    "latitude": 22.993611368859,
    "name": "Chiuanhouse",
    "date": "2016-06-07T06:30:01.763Z"
  },
  {
    "visit": 1,
    "longitude": 120.21048833164,
    "latitude": 22.995917576717,
    "name": "CUCINA佐佐義",
    "date": "2016-06-07T06:30:01.763Z"
  },
  {
    "visit": 2,
    "longitude": 120.21095,
    "latitude": 22.99473,
    "name": "麻吉的店(複合式餐飲)",
    "date": "2016-06-07T06:30:01.763Z"
  },
  {
    "visit": 2,
    "longitude": 120.16927367567,
    "latitude": 22.986606191543,
    "name": "文中66A壘球埸",
    "date": "2016-06-07T06:30:01.763Z"
  },
  {
    "visit": 2,
    "longitude": 120.19907697497,
    "latitude": 22.987889801147,
    "name": "台南晶英酒店 Robin's Grill•teppan•lounge",
    "date": "2016-06-07T06:30:01.763Z"
  },
  {
    "visit": 2,
    "longitude": 120.18272543922,
    "latitude": 22.98957672629,
    "name": "佛光山南台別院",
    "date": "2016-06-07T06:30:01.763Z"
  },
  {
    "visit": 2,
    "longitude": 120.48169806656,
    "latitude": 22.887994162347,
    "name": "高雄旗山老街",
    "date": "2016-06-07T06:30:01.763Z"
  },
  {
    "visit": 2,
    "longitude": 120.24822,
    "latitude": 23.1848199,
    "name": "龍泉冰店",
    "date": "2016-06-07T06:30:01.763Z"
  },
  {
    "visit": 2,
    "longitude": 120.2041,
    "latitude": 22.99374,
    "name": "台南天壇－天公廟",
    "date": "2016-06-07T06:30:01.763Z"
  },
  {
    "visit": 2,
    "longitude": 120.14409455291,
    "latitude": 22.996630960005,
    "name": "安平練車場",
    "date": "2016-06-07T06:30:01.763Z"
  },
  {
    "visit": 2,
    "longitude": 120.22328,
    "latitude": 22.98706,
    "name": "比薩茶坊",
    "date": "2016-06-07T06:30:01.763Z"
  },
  {
    "visit": 2,
    "longitude": 120.22279,
    "latitude": 22.97962,
    "name": "加州廚房",
    "date": "2016-06-07T06:30:01.763Z"
  },
  {
    "visit": 2,
    "longitude": 120.15774199652,
    "latitude": 22.994065245015,
    "name": "林默娘公園",
    "date": "2016-06-07T06:30:01.763Z"
  },
  {
    "visit": 2,
    "longitude": 120.25833909,
    "latitude": 23.03247518,
    "name": "永康 龍潭",
    "date": "2016-06-07T06:30:01.763Z"
  },
  {
    "visit": 2,
    "longitude": 120.19876017363,
    "latitude": 22.986752747775,
    "name": "台南新光三越西門店花月嵐拉麵",
    "date": "2016-06-07T06:30:01.763Z"
  },
  {
    "visit": 2,
    "longitude": 120.19780200611,
    "latitude": 22.988245991803,
    "name": "台南西門錢櫃KTV",
    "date": "2016-06-07T06:30:01.763Z"
  },
  {
    "visit": 2,
    "longitude": 120.19475,
    "latitude": 22.99307,
    "name": "W商務會館",
    "date": "2016-06-07T06:30:01.763Z"
  },
  {
    "visit": 2,
    "longitude": 120.24875949521,
    "latitude": 23.183102712113,
    "name": "來來KTV",
    "date": "2016-06-07T06:30:01.763Z"
  },
  {
    "visit": 2,
    "longitude": 120.23423126272,
    "latitude": 22.995679232043,
    "name": "金礦咖啡",
    "date": "2016-06-07T06:30:01.763Z"
  },
  {
    "visit": 2,
    "longitude": 120.14699658705,
    "latitude": 22.989819453777,
    "name": "安平觀夕平台 Anping Sunset Platform",
    "date": "2016-06-07T06:30:01.763Z"
  },
  {
    "visit": 3,
    "longitude": 120.22675735848,
    "latitude": 22.969023773846,
    "name": "台南市立醫院急診室",
    "date": "2016-06-07T06:30:01.763Z"
  },
  {
    "visit": 3,
    "longitude": 120.21887314804,
    "latitude": 22.982815914296,
    "name": "台南大東夜市❤E.M❤",
    "date": "2016-06-07T06:30:01.763Z"
  },
  {
    "visit": 3,
    "longitude": 120.25927524024,
    "latitude": 23.021276174532,
    "name": "永康探索公園",
    "date": "2016-06-07T06:30:01.763Z"
  },
  {
    "visit": 3,
    "longitude": 120.20767115689,
    "latitude": 22.98325435023,
    "name": "台南大學操場",
    "date": "2016-06-07T06:30:01.763Z"
  },
  {
    "visit": 3,
    "longitude": 120.235154067,
    "latitude": 23.003941326251,
    "name": "爭鮮迴轉寿司 Sushi Express 中華店",
    "date": "2016-06-07T06:30:01.763Z"
  },
  {
    "visit": 3,
    "longitude": 120.18835036767,
    "latitude": 22.992543174726,
    "name": "台南市移民署",
    "date": "2016-06-07T06:30:01.763Z"
  },
  {
    "visit": 3,
    "longitude": 120.25916511387,
    "latitude": 23.0367765012,
    "name": "森品複合式餐飲店",
    "date": "2016-06-07T06:30:01.763Z"
  },
  {
    "visit": 3,
    "longitude": 120.21791447721,
    "latitude": 22.984200263238,
    "name": "星巴克 府榮門市",
    "date": "2016-06-07T06:30:01.763Z"
  },
  {
    "visit": 3,
    "longitude": 120.21456,
    "latitude": 22.99382,
    "name": "AJ Burger美式餐廳",
    "date": "2016-06-07T06:30:01.763Z"
  },
  {
    "visit": 3,
    "longitude": 120.22294,
    "latitude": 23.00301,
    "name": "魚羊鮮豆咖啡館",
    "date": "2016-06-07T06:30:01.763Z"
  },
  {
    "visit": 3,
    "longitude": 120.19637416831,
    "latitude": 22.997658165585,
    "name": "神農街",
    "date": "2016-06-07T06:30:01.763Z"
  },
  {
    "visit": 3,
    "longitude": 120.22719,
    "latitude": 22.98257,
    "name": "吳峻賢婦產科",
    "date": "2016-06-07T06:30:01.763Z"
  },
  {
    "visit": 3,
    "longitude": 120.2625961,
    "latitude": 23.1894474,
    "name": "國立曾文高級農工職業學校",
    "date": "2016-06-07T06:30:01.763Z"
  },
  {
    "visit": 3,
    "longitude": 120.19964562025,
    "latitude": 22.992108589983,
    "name": "松仔腳燒烤海產",
    "date": "2016-06-07T06:30:01.763Z"
  },
  {
    "visit": 3,
    "longitude": 120.18730048133,
    "latitude": 22.990860843203,
    "name": "台南生活美學館",
    "date": "2016-06-07T06:30:01.763Z"
  },
  {
    "visit": 3,
    "longitude": 120.2002396,
    "latitude": 22.99754461,
    "name": "悦津鹹粥",
    "date": "2016-06-07T06:30:01.763Z"
  },
  {
    "visit": 4,
    "longitude": 120.22342,
    "latitude": 22.9935,
    "name": "開普三號店 CAPE CAFE 3",
    "date": "2016-06-07T06:30:01.763Z"
  },
  {
    "visit": 4,
    "longitude": 120.1611151,
    "latitude": 23.000049,
    "name": "安平天后宮",
    "date": "2016-06-07T06:30:01.763Z"
  },
  {
    "visit": 4,
    "longitude": 120.29257802436,
    "latitude": 23.128567734273,
    "name": "Mcdonald's麥當勞善化店",
    "date": "2016-06-07T06:30:01.763Z"
  },
  {
    "visit": 4,
    "longitude": 120.22123,
    "latitude": 22.9956299,
    "name": "KAFFE at HOME",
    "date": "2016-06-07T06:30:01.763Z"
  },
  {
    "visit": 4,
    "longitude": 120.22245524085,
    "latitude": 22.97311027656,
    "name": "巴克禮紀念公園",
    "date": "2016-06-07T06:30:01.763Z"
  },
  {
    "visit": 4,
    "longitude": 120.22107832478,
    "latitude": 23.024788077567,
    "name": "Golden Brother's Dormit0ry",
    "date": "2016-06-07T06:30:01.763Z"
  },
  {
    "visit": 4,
    "longitude": 120.18938,
    "latitude": 22.9973,
    "name": "新臨安橋-台南彩虹橋",
    "date": "2016-06-07T06:30:01.763Z"
  },
  {
    "visit": 4,
    "longitude": 120.22745,
    "latitude": 22.99728,
    "name": "布朗趣英式早午餐",
    "date": "2016-06-07T06:30:01.763Z"
  },
  {
    "visit": 4,
    "longitude": 120.2178192,
    "latitude": 22.9795609,
    "name": "維達都會生活俱樂部 La Vida Health Club",
    "date": "2016-06-07T06:30:01.763Z"
  },
  {
    "visit": 4,
    "longitude": 120.18705685685,
    "latitude": 22.988698686301,
    "name": "Friday星期五餐廳",
    "date": "2016-06-07T06:30:01.763Z"
  },
  {
    "visit": 4,
    "longitude": 120.22109105269,
    "latitude": 22.982336017913,
    "name": "銀座日式料理",
    "date": "2016-06-07T06:30:01.763Z"
  },
  {
    "visit": 4,
    "longitude": 120.19343913971,
    "latitude": 23.010363926672,
    "name": "Costco 台南店",
    "date": "2016-06-07T06:30:01.763Z"
  },
  {
    "visit": 5,
    "longitude": 120.1879653,
    "latitude": 23.0077551,
    "name": "天成複合式釣蝦埸",
    "date": "2016-06-07T06:30:01.763Z"
  },
  {
    "visit": 5,
    "longitude": 120.16294,
    "latitude": 23.00068,
    "name": "永泰興蜜餞行",
    "date": "2016-06-07T06:30:01.763Z"
  },
  {
    "visit": 5,
    "longitude": 120.16839542661,
    "latitude": 22.997133560697,
    "name": "台南市立安平國中",
    "date": "2016-06-07T06:30:01.763Z"
  },
  {
    "visit": 5,
    "longitude": 120.20127,
    "latitude": 23.00955,
    "name": "席瑪朵珈琲烘焙棧 Cermado cafe",
    "date": "2016-06-07T06:30:01.763Z"
  },
  {
    "visit": 5,
    "longitude": 120.19762277233,
    "latitude": 22.988117458101,
    "name": "台南大億麗緻酒店共同市場歐亞自助餐廳",
    "date": "2016-06-07T06:30:01.763Z"
  },
  {
    "visit": 5,
    "longitude": 120.2185917305,
    "latitude": 22.988758918,
    "name": "勝利國小",
    "date": "2016-06-07T06:30:01.763Z"
  },
  {
    "visit": 5,
    "longitude": 120.21382708233,
    "latitude": 23.003583742246,
    "name": "刺客炭火燒肉",
    "date": "2016-06-07T06:30:01.763Z"
  },
  {
    "visit": 5,
    "longitude": 120.2020721,
    "latitude": 23.0013294,
    "name": "立人國小",
    "date": "2016-06-07T06:30:01.763Z"
  },
  {
    "visit": 5,
    "longitude": 120.20801737834,
    "latitude": 22.987952712977,
    "name": "延平郡王祠",
    "date": "2016-06-07T06:30:01.763Z"
  },
  {
    "visit": 6,
    "longitude": 120.19656153963,
    "latitude": 22.994845396489,
    "name": "Mumu白姆森林（美、義料理）",
    "date": "2016-06-07T06:30:01.763Z"
  },
  {
    "visit": 6,
    "longitude": 120.22057687337,
    "latitude": 22.9922225016,
    "name": "韓朝 東寧店",
    "date": "2016-06-07T06:30:01.763Z"
  },
  {
    "visit": 6,
    "longitude": 120.30165258872,
    "latitude": 23.077691096642,
    "name": "Dartwits Dormitory No.1 Guoji Road Shinsi District Tainan City Taiwan",
    "date": "2016-06-07T06:30:01.763Z"
  },
  {
    "visit": 6,
    "longitude": 120.48392960005,
    "latitude": 22.88294067157,
    "name": "旗山",
    "date": "2016-06-07T06:30:01.763Z"
  },
  {
    "visit": 6,
    "longitude": 120.16354365875,
    "latitude": 22.990438462529,
    "name": "億載國小",
    "date": "2016-06-07T06:30:01.763Z"
  },
  {
    "visit": 6,
    "longitude": 120.2342704,
    "latitude": 22.9965006,
    "name": "世界健身俱樂部（國賓館）",
    "date": "2016-06-07T06:30:01.763Z"
  },
  {
    "visit": 6,
    "longitude": 120.15976038983,
    "latitude": 23.003754817156,
    "name": "德記洋行&安平樹屋",
    "date": "2016-06-07T06:30:01.763Z"
  },
  {
    "visit": 6,
    "longitude": 120.22317,
    "latitude": 22.98084,
    "name": "準媽媽婦嬰用品專賣店(直營系統)",
    "date": "2016-06-07T06:30:01.763Z"
  },
  {
    "visit": 6,
    "longitude": 120.23667635759,
    "latitude": 23.00903285162,
    "name": "五王國民小學",
    "date": "2016-06-07T06:30:01.763Z"
  },
  {
    "visit": 6,
    "longitude": 120.21758726512,
    "latitude": 22.996685621924,
    "name": "成功大學-中正堂",
    "date": "2016-06-07T06:30:01.763Z"
  },
  {
    "visit": 6,
    "longitude": 120.19841,
    "latitude": 22.99398,
    "name": "JJ-W Hotel",
    "date": "2016-06-07T06:30:01.763Z"
  },
  {
    "visit": 6,
    "longitude": 120.19726951584,
    "latitude": 22.994355840866,
    "name": "蜷尾家 甘味处。。。散步甜食",
    "date": "2016-06-07T06:30:01.763Z"
  },
  {
    "visit": 6,
    "longitude": 120.24004402706,
    "latitude": 22.982150906613,
    "name": "台南市立復興國中",
    "date": "2016-06-07T06:30:01.763Z"
  },
  {
    "visit": 6,
    "longitude": 120.206042,
    "latitude": 22.99549,
    "name": "Mr.onion 洋蔥牛排",
    "date": "2016-06-07T06:30:01.763Z"
  },
  {
    "visit": 6,
    "longitude": 120.210877855,
    "latitude": 22.99504133,
    "name": "D.D BEAR",
    "date": "2016-06-07T06:30:01.763Z"
  },
  {
    "visit": 7,
    "longitude": 120.17265,
    "latitude": 22.99114,
    "name": "Daylight光合箱子",
    "date": "2016-06-07T06:30:01.763Z"
  },
  {
    "visit": 7,
    "longitude": 120.219,
    "latitude": 22.98499,
    "name": "A room",
    "date": "2016-06-07T06:30:01.763Z"
  },
  {
    "visit": 7,
    "longitude": 120.2094579,
    "latitude": 22.9956648,
    "name": "南方公園-森菓鯛魚燒霜淇淋",
    "date": "2016-06-07T06:30:01.763Z"
  },
  {
    "visit": 7,
    "longitude": 120.18199422583,
    "latitude": 22.992884723416,
    "name": "上原日本料理",
    "date": "2016-06-07T06:30:01.763Z"
  },
  {
    "visit": 7,
    "longitude": 120.19615299984,
    "latitude": 23.001582749048,
    "name": "Mr.wheat 小麥先生創意料理 - 台南金華店",
    "date": "2016-06-07T06:30:01.763Z"
  },
  {
    "visit": 7,
    "longitude": 120.21331,
    "latitude": 22.9945099,
    "name": "府城騷烤家",
    "date": "2016-06-07T06:30:01.763Z"
  },
  {
    "visit": 7,
    "longitude": 120.19821037581,
    "latitude": 22.98739150113,
    "name": "台南新光三越新天地-新光影城",
    "date": "2016-06-07T06:30:01.763Z"
  },
  {
    "visit": 8,
    "longitude": 120.200817,
    "latitude": 22.981624,
    "name": "國立臺南家齊女子高級中學",
    "date": "2016-06-07T06:30:01.763Z"
  },
  {
    "visit": 8,
    "longitude": 120.26259,
    "latitude": 23.18945,
    "name": "曾文農工",
    "date": "2016-06-07T06:30:01.763Z"
  },
  {
    "visit": 8,
    "longitude": 120.20942,
    "latitude": 22.99044,
    "name": "台南東嶽殿",
    "date": "2016-06-07T06:30:01.763Z"
  },
  {
    "visit": 8,
    "longitude": 120.22185559466,
    "latitude": 22.989340099854,
    "name": "私立長榮高級中學 Chang Jung Senior High School",
    "date": "2016-06-07T06:30:01.763Z"
  },
  {
    "visit": 8,
    "longitude": 120.26068363488,
    "latitude": 23.027670026131,
    "name": "台南市永康區",
    "date": "2016-06-07T06:30:01.763Z"
  },
  {
    "visit": 8,
    "longitude": 120.18773261116,
    "latitude": 23.007500481868,
    "name": "天成複合式主題館",
    "date": "2016-06-07T06:30:01.763Z"
  },
  {
    "visit": 8,
    "longitude": 120.17461,
    "latitude": 22.99818,
    "name": "台南周氏蝦捲總店",
    "date": "2016-06-07T06:30:01.763Z"
  },
  {
    "visit": 8,
    "longitude": 120.20207,
    "latitude": 22.99106,
    "name": "花川日式料理",
    "date": "2016-06-07T06:30:01.763Z"
  },
  {
    "visit": 8,
    "longitude": 120.22271818023,
    "latitude": 22.974340467603,
    "name": "235巷義大利麵 台南文化店",
    "date": "2016-06-07T06:30:01.763Z"
  },
  {
    "visit": 8,
    "longitude": 120.22100732643,
    "latitude": 22.990755954617,
    "name": "飛饗創意西式料理-旗艦總店",
    "date": "2016-06-07T06:30:01.763Z"
  },
  {
    "visit": 8,
    "longitude": 120.48328,
    "latitude": 22.88069,
    "name": "行政院衛生署旗山醫院",
    "date": "2016-06-07T06:30:01.763Z"
  },
  {
    "visit": 8,
    "longitude": 120.2614,
    "latitude": 23.02365,
    "name": "海中寶中華料理餐廳",
    "date": "2016-06-07T06:30:01.763Z"
  },
  {
    "visit": 8,
    "longitude": 120.22115555556,
    "latitude": 22.991069444444,
    "name": "臺南市私立長榮女子高級中學",
    "date": "2016-06-07T06:30:01.763Z"
  },
  {
    "visit": 8,
    "longitude": 120.26278417842,
    "latitude": 23.018926752813,
    "name": "永大夜巿",
    "date": "2016-06-07T06:30:01.763Z"
  },
  {
    "visit": 9,
    "longitude": 120.25358891503,
    "latitude": 23.038462654754,
    "name": "永康火車站 Yongkang Station",
    "date": "2016-06-07T06:30:01.763Z"
  },
  {
    "visit": 9,
    "longitude": 120.20517827393,
    "latitude": 22.982567423057,
    "name": "懷舊小棧 - 五妃廟口豆腐冰",
    "date": "2016-06-07T06:30:01.763Z"
  },
  {
    "visit": 9,
    "longitude": 120.26184699061,
    "latitude": 23.18648820243,
    "name": "麻豆無名乾麵",
    "date": "2016-06-07T06:30:01.763Z"
  },
  {
    "visit": 9,
    "longitude": 120.2331697117,
    "latitude": 22.991712185471,
    "name": "涓豆腐韓式料理-台南夢時代店",
    "date": "2016-06-07T06:30:01.763Z"
  },
  {
    "visit": 9,
    "longitude": 120.2336752,
    "latitude": 22.9912468,
    "name": "跳舞香水 南紡夢時代",
    "date": "2016-06-07T06:30:01.763Z"
  },
  {
    "visit": 9,
    "longitude": 120.223688,
    "latitude": 22.980319,
    "name": "薄多義bit2eat義大利麵pizza台南崇學",
    "date": "2016-06-07T06:30:01.763Z"
  },
  {
    "visit": 9,
    "longitude": 120.19874883982,
    "latitude": 22.98597122174,
    "name": "南英商工",
    "date": "2016-06-07T06:30:01.763Z"
  },
  {
    "visit": 9,
    "longitude": 120.18360389376,
    "latitude": 22.992389479062,
    "name": "台南市政府西側廣場",
    "date": "2016-06-07T06:30:01.763Z"
  },
  {
    "visit": 9,
    "longitude": 120.17174833708,
    "latitude": 23.163830095139,
    "name": "佳里國小",
    "date": "2016-06-07T06:30:01.763Z"
  },
  {
    "visit": 9,
    "longitude": 120.1782,
    "latitude": 23.16043,
    "name": "佳里麥當勞",
    "date": "2016-06-07T06:30:01.763Z"
  },
  {
    "visit": 9,
    "longitude": 120.24905343722,
    "latitude": 23.18532065,
    "name": "麻豆菜市場",
    "date": "2016-06-07T06:30:01.763Z"
  },
  {
    "visit": 9,
    "longitude": 120.252,
    "latitude": 23.1888,
    "name": "蘋果森林餐廳",
    "date": "2016-06-07T06:30:01.763Z"
  },
  {
    "visit": 10,
    "longitude": 120.22130284575,
    "latitude": 22.979366799069,
    "name": "天主教德光中學",
    "date": "2016-06-07T06:30:01.763Z"
  },
  {
    "visit": 10,
    "longitude": 120.19794,
    "latitude": 22.98834,
    "name": "partyworld ktv ● 錢櫃台南西門店",
    "date": "2016-06-07T06:30:01.763Z"
  },
  {
    "visit": 10,
    "longitude": 120.29576,
    "latitude": 23.07897,
    "name": "新市國小",
    "date": "2016-06-07T06:30:01.763Z"
  },
  {
    "visit": 10,
    "longitude": 120.19918,
    "latitude": 22.99783,
    "name": "永樂燒肉飯",
    "date": "2016-06-07T06:30:01.763Z"
  },
  {
    "visit": 10,
    "longitude": 120.18627,
    "latitude": 22.99187,
    "name": "台南市社會福利綜合大樓",
    "date": "2016-06-07T06:30:01.763Z"
  },
  {
    "visit": 10,
    "longitude": 120.22082,
    "latitude": 22.97444,
    "name": "長榮桂冠2樓吃遍天下",
    "date": "2016-06-07T06:30:01.763Z"
  },
  {
    "visit": 10,
    "longitude": 120.19909216516,
    "latitude": 22.988003531664,
    "name": "晶英酒店 Robin's 牛排屋",
    "date": "2016-06-07T06:30:01.763Z"
  },
  {
    "visit": 10,
    "longitude": 120.24806508478,
    "latitude": 23.183110966778,
    "name": "台南巿麻豆區",
    "date": "2016-06-07T06:30:01.763Z"
  },
  {
    "visit": 11,
    "longitude": 120.2331082478,
    "latitude": 22.990812924633,
    "name": "藍屋おいや和風御膳-南紡夢時代",
    "date": "2016-06-07T06:30:01.763Z"
  },
  {
    "visit": 11,
    "longitude": 120.17913393594,
    "latitude": 22.997524545472,
    "name": "南山人壽台南分公司",
    "date": "2016-06-07T06:30:01.763Z"
  },
  {
    "visit": 11,
    "longitude": 120.19786,
    "latitude": 22.99334,
    "name": "福榮小吃—阿瑞意麵",
    "date": "2016-06-07T06:30:01.763Z"
  },
  {
    "visit": 11,
    "longitude": 120.1976860957,
    "latitude": 22.993864149254,
    "name": "國華街淺草青春新天地",
    "date": "2016-06-07T06:30:01.763Z"
  },
  {
    "visit": 11,
    "longitude": 120.20710319062,
    "latitude": 23.018908383671,
    "name": "湯村足體養生會館",
    "date": "2016-06-07T06:30:01.763Z"
  },
  {
    "visit": 12,
    "longitude": 120.25565253776,
    "latitude": 23.025947282067,
    "name": "永康國小",
    "date": "2016-06-07T06:30:01.763Z"
  },
  {
    "visit": 12,
    "longitude": 120.19605929352,
    "latitude": 22.979536452935,
    "name": "新興國小",
    "date": "2016-06-07T06:30:01.763Z"
  },
  {
    "visit": 12,
    "longitude": 120.48197906667,
    "latitude": 22.888082504272,
    "name": "旗山技仔冰城總店",
    "date": "2016-06-07T06:30:01.763Z"
  },
  {
    "visit": 12,
    "longitude": 120.22136083815,
    "latitude": 22.9740211,
    "name": "德安百貨春水堂",
    "date": "2016-06-07T06:30:01.763Z"
  },
  {
    "visit": 13,
    "longitude": 120.19768239964,
    "latitude": 22.993561897255,
    "name": "邱家傳統小吃小卷米粉",
    "date": "2016-06-07T06:30:01.763Z"
  },
  {
    "visit": 13,
    "longitude": 120.21846061554,
    "latitude": 22.995345825567,
    "name": "鬥牛士二鍋成大店",
    "date": "2016-06-07T06:30:01.763Z"
  },
  {
    "visit": 13,
    "longitude": 120.2192078,
    "latitude": 23.0021992,
    "name": "成大醫院",
    "date": "2016-06-07T06:30:01.763Z"
  },
  {
    "visit": 13,
    "longitude": 120.20580013497,
    "latitude": 22.980733233594,
    "name": "台南市立棒球場",
    "date": "2016-06-07T06:30:01.763Z"
  },
  {
    "visit": 13,
    "longitude": 120.21083,
    "latitude": 22.99715,
    "name": "台南大飯店 Hotel Tainan",
    "date": "2016-06-07T06:30:01.763Z"
  },
  {
    "visit": 13,
    "longitude": 120.22554715615,
    "latitude": 22.934710000308,
    "name": "台南白宮～奇美博物館",
    "date": "2016-06-07T06:30:01.763Z"
  },
  {
    "visit": 14,
    "longitude": 120.161134,
    "latitude": 23.003993,
    "name": "臺南安平老街",
    "date": "2016-06-07T06:30:01.763Z"
  },
  {
    "visit": 14,
    "longitude": 120.22355826271,
    "latitude": 22.999363759867,
    "name": "成大自強校區",
    "date": "2016-06-07T06:30:01.763Z"
  },
  {
    "visit": 14,
    "longitude": 120.19147197998,
    "latitude": 22.980443145573,
    "name": "石二鍋台南金華店",
    "date": "2016-06-07T06:30:01.763Z"
  },
  {
    "visit": 14,
    "longitude": 120.19642,
    "latitude": 22.9906599,
    "name": "宏昇KTV",
    "date": "2016-06-07T06:30:01.763Z"
  },
  {
    "visit": 14,
    "longitude": 120.3077,
    "latitude": 23.0345,
    "name": "台南-新化老街",
    "date": "2016-06-07T06:30:01.763Z"
  },
  {
    "visit": 15,
    "longitude": 120.21789,
    "latitude": 22.99447,
    "name": "CHADOR'咖啡茶朵",
    "date": "2016-06-07T06:30:01.763Z"
  },
  {
    "visit": 15,
    "longitude": 120.2908639813,
    "latitude": 22.996635786818,
    "name": "阿菊食堂",
    "date": "2016-06-07T06:30:01.763Z"
  },
  {
    "visit": 15,
    "longitude": 120.21058,
    "latitude": 22.99356,
    "name": "深呼吸運動會館",
    "date": "2016-06-07T06:30:01.763Z"
  },
  {
    "visit": 15,
    "longitude": 120.21000548442,
    "latitude": 22.995785498373,
    "name": "台南Focus~WorldGym世界健身俱樂部",
    "date": "2016-06-07T06:30:01.763Z"
  },
  {
    "visit": 16,
    "longitude": 120.22170290993,
    "latitude": 23.020359741622,
    "name": "奇美醫院急診室",
    "date": "2016-06-07T06:30:01.763Z"
  },
  {
    "visit": 16,
    "longitude": 120.19549,
    "latitude": 22.99168,
    "name": "Moogo瑪果",
    "date": "2016-06-07T06:30:01.763Z"
  },
  {
    "visit": 16,
    "longitude": 120.21286576434,
    "latitude": 22.979503641,
    "name": "香圃麵店",
    "date": "2016-06-07T06:30:01.763Z"
  },
  {
    "visit": 16,
    "longitude": 120.16729,
    "latitude": 22.99894,
    "name": "安平古堡",
    "date": "2016-06-07T06:30:01.763Z"
  },
  {
    "visit": 16,
    "longitude": 120.1843976016,
    "latitude": 22.98934843857,
    "name": "台南安麗體驗中心",
    "date": "2016-06-07T06:30:01.763Z"
  },
  {
    "visit": 16,
    "longitude": 120.23401475527,
    "latitude": 22.99588294623,
    "name": "World Gym 國賓店",
    "date": "2016-06-07T06:30:01.763Z"
  },
  {
    "visit": 17,
    "longitude": 120.25178685648,
    "latitude": 23.029001937785,
    "name": "聯盈發港式飲茶",
    "date": "2016-06-07T06:30:01.763Z"
  },
  {
    "visit": 17,
    "longitude": 120.1862869,
    "latitude": 22.9779606,
    "name": "是吉祥火鍋",
    "date": "2016-06-07T06:30:01.763Z"
  },
  {
    "visit": 17,
    "longitude": 120.22760205909,
    "latitude": 22.968558342231,
    "name": "崇文里暨崇成里聯合活動中心",
    "date": "2016-06-07T06:30:01.763Z"
  },
  {
    "visit": 17,
    "longitude": 120.19173,
    "latitude": 22.98664,
    "name": "廣東沙茶爐",
    "date": "2016-06-07T06:30:01.763Z"
  },
  {
    "visit": 17,
    "longitude": 120.21040653295,
    "latitude": 22.995856220979,
    "name": "focus13F 佐佐義義大利麵",
    "date": "2016-06-07T06:30:01.763Z"
  },
  {
    "visit": 18,
    "longitude": 120.15338,
    "latitude": 22.99991,
    "name": "松霖茶坊+同記安平豆花",
    "date": "2016-06-07T06:30:01.763Z"
  },
  {
    "visit": 18,
    "longitude": 120.2217902,
    "latitude": 22.9799581,
    "name": "德光監獄大牢",
    "date": "2016-06-07T06:30:01.763Z"
  },
  {
    "visit": 18,
    "longitude": 120.1680442,
    "latitude": 22.9865629,
    "name": "In STYLE hair studio",
    "date": "2016-06-07T06:30:01.763Z"
  },
  {
    "visit": 19,
    "longitude": 120.156306149,
    "latitude": 22.992921180829,
    "name": "安平漁港",
    "date": "2016-06-07T06:30:01.763Z"
  },
  {
    "visit": 19,
    "longitude": 120.21228380381,
    "latitude": 22.997908143605,
    "name": "和欣客運總站",
    "date": "2016-06-07T06:30:01.763Z"
  },
  {
    "visit": 19,
    "longitude": 120.22833,
    "latitude": 22.99349,
    "name": "Domo Pann 多麼胖咖啡東興店",
    "date": "2016-06-07T06:30:01.763Z"
  },
  {
    "visit": 19,
    "longitude": 120.14285204014,
    "latitude": 22.993553442603,
    "name": "安平沙灘",
    "date": "2016-06-07T06:30:01.763Z"
  },
  {
    "visit": 20,
    "longitude": 120.25188,
    "latitude": 23.02915,
    "name": "聯盈發點心專門店",
    "date": "2016-06-07T06:30:01.763Z"
  },
  {
    "visit": 20,
    "longitude": 120.21818488133,
    "latitude": 23.002205663651,
    "name": "台南成大醫院",
    "date": "2016-06-07T06:30:01.763Z"
  },
  {
    "visit": 20,
    "longitude": 120.21429077317,
    "latitude": 22.996495579963,
    "name": "Shangri-La Tainan 香格里拉台南遠東國際大飯店",
    "date": "2016-06-07T06:30:01.763Z"
  },
  {
    "visit": 21,
    "longitude": 120.214758,
    "latitude": 22.9937616,
    "name": "黑工號 嫩仙草",
    "date": "2016-06-07T06:30:01.763Z"
  },
  {
    "visit": 21,
    "longitude": 120.18932,
    "latitude": 22.99203,
    "name": "多一點咖啡館-台南美學館-品牌特許授權店",
    "date": "2016-06-07T06:30:01.763Z"
  },
  {
    "visit": 21,
    "longitude": 120.25706,
    "latitude": 23.02598,
    "name": "台南永康",
    "date": "2016-06-07T06:30:01.763Z"
  },
  {
    "visit": 21,
    "longitude": 120.20710683167,
    "latitude": 22.979134611758,
    "name": "上鶴茶坊",
    "date": "2016-06-07T06:30:01.763Z"
  },
  {
    "visit": 22,
    "longitude": 120.21055297138,
    "latitude": 22.992012017162,
    "name": "萬昌街波哥",
    "date": "2016-06-07T06:30:01.763Z"
  },
  {
    "visit": 22,
    "longitude": 120.1868240837,
    "latitude": 22.982149893893,
    "name": "木匠炭火燒肉",
    "date": "2016-06-07T06:30:01.763Z"
  },
  {
    "visit": 23,
    "longitude": 120.20981575793,
    "latitude": 22.995100521131,
    "name": "新光三越 台南中山店",
    "date": "2016-06-07T06:30:01.763Z"
  },
  {
    "visit": 23,
    "longitude": 120.20330585737,
    "latitude": 22.99017825645,
    "name": "台南市立忠義國小",
    "date": "2016-06-07T06:30:01.763Z"
  },
  {
    "visit": 23,
    "longitude": 120.48119425994,
    "latitude": 22.8877135449,
    "name": "旗山體育場",
    "date": "2016-06-07T06:30:01.763Z"
  },
  {
    "visit": 23,
    "longitude": 120.20392,
    "latitude": 22.98582,
    "name": "小荳荳鍋燒意麵",
    "date": "2016-06-07T06:30:01.763Z"
  },
  {
    "visit": 24,
    "longitude": 120.19793,
    "latitude": 22.98777,
    "name": "大億麗緻酒店Lips lounge bar",
    "date": "2016-06-07T06:30:01.763Z"
  },
  {
    "visit": 24,
    "longitude": 120.20984411117,
    "latitude": 22.982640796177,
    "name": "東北酸白菜火鍋",
    "date": "2016-06-07T06:30:01.763Z"
  },
  {
    "visit": 24,
    "longitude": 120.17158,
    "latitude": 22.98429,
    "name": "台南市地方法院",
    "date": "2016-06-07T06:30:01.763Z"
  },
  {
    "visit": 25,
    "longitude": 120.18637,
    "latitude": 22.98283,
    "name": "台南極鮮火鍋中華西路店",
    "date": "2016-06-07T06:30:01.763Z"
  },
  {
    "visit": 26,
    "longitude": 120.16086967485,
    "latitude": 23.000506180217,
    "name": "安平開台天后宮",
    "date": "2016-06-07T06:30:01.763Z"
  },
  {
    "visit": 26,
    "longitude": 120.22202,
    "latitude": 23.02062,
    "name": "奇美醫院- Chi Mei Hospital",
    "date": "2016-06-07T06:30:01.763Z"
  },
  {
    "visit": 26,
    "longitude": 120.186712645,
    "latitude": 23.009689627933,
    "name": "北海釣蝦場",
    "date": "2016-06-07T06:30:01.763Z"
  },
  {
    "visit": 26,
    "longitude": 120.16623,
    "latitude": 22.99962,
    "name": "石門國小",
    "date": "2016-06-07T06:30:01.763Z"
  },
  {
    "visit": 26,
    "longitude": 120.21836,
    "latitude": 22.99595,
    "name": "品田牧場 - 台南勝利店",
    "date": "2016-06-07T06:30:01.763Z"
  },
  {
    "visit": 27,
    "longitude": 120.20681890961,
    "latitude": 22.9897632,
    "name": "永記虱目魚丸",
    "date": "2016-06-07T06:30:01.763Z"
  },
  {
    "visit": 28,
    "longitude": 120.19882,
    "latitude": 22.99764,
    "name": "阿松割包",
    "date": "2016-06-07T06:30:01.763Z"
  },
  {
    "visit": 29,
    "longitude": 120.17548199013,
    "latitude": 22.989375910681,
    "name": "台南市安平區",
    "date": "2016-06-07T06:30:01.763Z"
  },
  {
    "visit": 29,
    "longitude": 120.1971893,
    "latitude": 22.9944401,
    "name": "泰成水果店",
    "date": "2016-06-07T06:30:01.763Z"
  },
  {
    "visit": 29,
    "longitude": 120.23284860482,
    "latitude": 22.984599802073,
    "name": "健身工廠《中華廠》",
    "date": "2016-06-07T06:30:01.763Z"
  },
  {
    "visit": 30,
    "longitude": 120.20326201989,
    "latitude": 23.004747392033,
    "name": "聚北海道昆布鍋 - 台南大潤發臨安店",
    "date": "2016-06-07T06:30:01.763Z"
  },
  {
    "visit": 30,
    "longitude": 120.14722428973,
    "latitude": 22.990223774206,
    "name": "觀汐平臺",
    "date": "2016-06-07T06:30:01.763Z"
  },
  {
    "visit": 31,
    "longitude": 120.22290319611,
    "latitude": 22.977009012109,
    "name": "台南崇德市場",
    "date": "2016-06-07T06:30:01.763Z"
  },
  {
    "visit": 32,
    "longitude": 120.23709244251,
    "latitude": 23.041052155021,
    "name": "鹽行",
    "date": "2016-06-07T06:30:01.763Z"
  },
  {
    "visit": 33,
    "longitude": 120.26010532843,
    "latitude": 23.19016737779,
    "name": "麻豆代天府之十八層地獄",
    "date": "2016-06-07T06:30:01.763Z"
  },
  {
    "visit": 33,
    "longitude": 120.23068,
    "latitude": 22.99057,
    "name": "東光國小",
    "date": "2016-06-07T06:30:01.763Z"
  },
  {
    "visit": 34,
    "longitude": 120.18502050917,
    "latitude": 22.99046583036,
    "name": "台南市政府",
    "date": "2016-06-07T06:30:01.763Z"
  },
  {
    "visit": 35,
    "longitude": 120.18570852685,
    "latitude": 22.998042744245,
    "name": "台南市安平區運河",
    "date": "2016-06-07T06:30:01.763Z"
  },
  {
    "visit": 35,
    "longitude": 120.23308607346,
    "latitude": 22.990726758622,
    "name": "南紡夢時代-華納影城",
    "date": "2016-06-07T06:30:01.763Z"
  },
  {
    "visit": 37,
    "longitude": 120.17856763435,
    "latitude": 23.158738286313,
    "name": "佳里丹丹漢堡",
    "date": "2016-06-07T06:30:01.763Z"
  },
  {
    "visit": 38,
    "longitude": 120.22346,
    "latitude": 22.98032,
    "name": "薄多義崇學店",
    "date": "2016-06-07T06:30:01.763Z"
  },
  {
    "visit": 38,
    "longitude": 120.23124014952,
    "latitude": 23.008689449674,
    "name": "家樂福 台南中華店",
    "date": "2016-06-07T06:30:01.763Z"
  },
  {
    "visit": 39,
    "longitude": 120.22859836008,
    "latitude": 22.9905583,
    "name": "伊都日本料理",
    "date": "2016-06-07T06:30:01.763Z"
  },
  {
    "visit": 39,
    "longitude": 120.19793,
    "latitude": 22.98777,
    "name": "Tayih Landis Hotel Tainan 台南大億麗緻酒店",
    "date": "2016-06-07T06:30:01.763Z"
  },
  {
    "visit": 39,
    "longitude": 120.21526,
    "latitude": 22.98879,
    "name": "毛丼 丼飯專門店",
    "date": "2016-06-07T06:30:01.763Z"
  },
  {
    "visit": 40,
    "longitude": 120.20618754185,
    "latitude": 22.995549850652,
    "name": "台南大遠百-華納威秀",
    "date": "2016-06-07T06:30:01.763Z"
  },
  {
    "visit": 42,
    "longitude": 120.20154,
    "latitude": 22.99519,
    "name": "全美戲院",
    "date": "2016-06-07T06:30:01.763Z"
  },
  {
    "visit": 42,
    "longitude": 120.20705,
    "latitude": 22.9882199,
    "name": "台南市臨水夫人媽廟",
    "date": "2016-06-07T06:30:01.763Z"
  },
  {
    "visit": 43,
    "longitude": 120.18749770464,
    "latitude": 22.989044430676,
    "name": "石頭火鍋(台南永華店)",
    "date": "2016-06-07T06:30:01.763Z"
  },
  {
    "visit": 43,
    "longitude": 120.19844,
    "latitude": 22.9994799,
    "name": "梅鑫海產",
    "date": "2016-06-07T06:30:01.763Z"
  },
  {
    "visit": 44,
    "longitude": 120.21306038132,
    "latitude": 22.989398637653,
    "name": "Tainan Sin Lau hospital",
    "date": "2016-06-07T06:30:01.763Z"
  },
  {
    "visit": 45,
    "longitude": 120.20673511467,
    "latitude": 22.999781843777,
    "name": "台南市天公廟(開基玉皇宮)",
    "date": "2016-06-07T06:30:01.763Z"
  },
  {
    "visit": 46,
    "longitude": 120.16894397748,
    "latitude": 22.998947854139,
    "name": "王氏魚皮",
    "date": "2016-06-07T06:30:01.763Z"
  },
  {
    "visit": 46,
    "longitude": 120.18872419,
    "latitude": 23.0133523,
    "name": "大港國小",
    "date": "2016-06-07T06:30:01.763Z"
  },
  {
    "visit": 47,
    "longitude": 120.22189504437,
    "latitude": 22.978460854064,
    "name": "定食8崇學店",
    "date": "2016-06-07T06:30:01.763Z"
  },
  {
    "visit": 48,
    "longitude": 120.25354,
    "latitude": 23.18356,
    "name": "丹丹漢堡（麻豆店）",
    "date": "2016-06-07T06:30:01.763Z"
  },
  {
    "visit": 49,
    "longitude": 120.2820996,
    "latitude": 23.09880685,
    "name": "星巴克 - 南科門市",
    "date": "2016-06-07T06:30:01.763Z"
  },
  {
    "visit": 50,
    "longitude": 120.18817548552,
    "latitude": 22.992244498297,
    "name": "台南美學館",
    "date": "2016-06-07T06:30:01.763Z"
  },
  {
    "visit": 50,
    "longitude": 120.23315773008,
    "latitude": 22.990033587109,
    "name": "Momo Paradise 夢時代牧場",
    "date": "2016-06-07T06:30:01.763Z"
  },
  {
    "visit": 50,
    "longitude": 120.2329270874,
    "latitude": 22.991070062938,
    "name": "老爺酒店甘粹餐廳",
    "date": "2016-06-07T06:30:01.763Z"
  },
  {
    "visit": 53,
    "longitude": 120.2619934,
    "latitude": 23.0194092,
    "name": "東東宴會式場永大幸福館",
    "date": "2016-06-07T06:30:01.763Z"
  },
  {
    "visit": 53,
    "longitude": 120.22092777778,
    "latitude": 22.973822222222,
    "name": "德安百貨台南店",
    "date": "2016-06-07T06:30:01.763Z"
  },
  {
    "visit": 54,
    "longitude": 120.2101505,
    "latitude": 22.9957717,
    "name": "卡不里pizza 義式餐廳",
    "date": "2016-06-07T06:30:01.763Z"
  },
  {
    "visit": 57,
    "longitude": 120.22841,
    "latitude": 22.98018,
    "name": "婦兒安婦幼中心",
    "date": "2016-06-07T06:30:01.763Z"
  },
  {
    "visit": 59,
    "longitude": 120.08797711639,
    "latitude": 23.211039753914,
    "name": "馬沙溝將軍魚港",
    "date": "2016-06-07T06:30:01.763Z"
  },
  {
    "visit": 63,
    "longitude": 120.2462462807,
    "latitude": 23.18496804282,
    "name": "麻豆夜巿",
    "date": "2016-06-07T06:30:01.763Z"
  },
  {
    "visit": 65,
    "longitude": 120.20244094845,
    "latitude": 22.997256618115,
    "name": "台南市一級古蹟赤崁樓",
    "date": "2016-06-07T06:30:01.763Z"
  },
  {
    "visit": 66,
    "longitude": 120.22334,
    "latitude": 22.97956,
    "name": "崇學國小",
    "date": "2016-06-07T06:30:01.763Z"
  },
  {
    "visit": 67,
    "longitude": 120.22046822125,
    "latitude": 23.001468884115,
    "name": "成功大學成杏廳",
    "date": "2016-06-07T06:30:01.763Z"
  },
  {
    "visit": 69,
    "longitude": 120.19721899186,
    "latitude": 22.986983811672,
    "name": "藍晒圖文創園區",
    "date": "2016-06-07T06:30:01.763Z"
  },
  {
    "visit": 71,
    "longitude": 120.19863961208,
    "latitude": 22.987050210035,
    "name": "新光三越 台南西門店",
    "date": "2016-06-07T06:30:01.763Z"
  },
  {
    "visit": 74,
    "longitude": 120.23293733967,
    "latitude": 22.99103966379,
    "name": "\"台南南紡\"夢時代購物中心",
    "date": "2016-06-07T06:30:01.763Z"
  },
  {
    "visit": 75,
    "longitude": 120.16080528271,
    "latitude": 23.001228038111,
    "name": "台南市安平古堡&老街",
    "date": "2016-06-07T06:30:01.763Z"
  },
  {
    "visit": 75,
    "longitude": 120.19858368,
    "latitude": 22.98767847,
    "name": "稻禾烏龍麵inaka-台南新光三越小西門店",
    "date": "2016-06-07T06:30:01.763Z"
  },
  {
    "visit": 76,
    "longitude": 120.24263749071,
    "latitude": 23.043689602214,
    "name": "桂田酒店－阿力海百匯自助餐廳",
    "date": "2016-06-07T06:30:01.763Z"
  },
  {
    "visit": 76,
    "longitude": 120.19676882194,
    "latitude": 22.997497336567,
    "name": "台南市神農街",
    "date": "2016-06-07T06:30:01.763Z"
  },
  {
    "visit": 80,
    "longitude": 120.18466,
    "latitude": 22.98902,
    "name": "夏慕尼新香榭鐵板燒-台南永華店",
    "date": "2016-06-07T06:30:01.763Z"
  },
  {
    "visit": 84,
    "longitude": 120.22393634554,
    "latitude": 22.934614922873,
    "name": "台南都會公園-奇美博物館",
    "date": "2016-06-07T06:30:01.763Z"
  },
  {
    "visit": 86,
    "longitude": 120.1986886,
    "latitude": 22.9882905,
    "name": "台南晶英酒店",
    "date": "2016-06-07T06:30:01.763Z"
  },
  {
    "visit": 89,
    "longitude": 120.18717,
    "latitude": 22.98791,
    "name": "家樂福台南安平店",
    "date": "2016-06-07T06:30:01.763Z"
  },
  {
    "visit": 99,
    "longitude": 120.21998743797,
    "latitude": 22.998208693738,
    "name": "國立成功大學成功校區",
    "date": "2016-06-07T06:30:01.763Z"
  },
  {
    "visit": 107,
    "longitude": 120.22749,
    "latitude": 23.01801,
    "name": "碳佐麻里_永康店",
    "date": "2016-06-07T06:30:01.763Z"
  },
  {
    "visit": 115,
    "longitude": 120.20693,
    "latitude": 22.99993,
    "name": "台南玉皇宮天公廟",
    "date": "2016-06-07T06:30:01.763Z"
  },
  {
    "visit": 116,
    "longitude": 120.14690225407,
    "latitude": 22.990450444499,
    "name": "安平觀汐平台",
    "date": "2016-06-07T06:30:01.763Z"
  },
  {
    "visit": 119,
    "longitude": 120.20518002266,
    "latitude": 22.996877367139,
    "name": "台南美樂地KTV中成店",
    "date": "2016-06-07T06:30:01.763Z"
  },
  {
    "visit": 123,
    "longitude": 120.20750741617,
    "latitude": 22.984047594813,
    "name": "國立台南大學",
    "date": "2016-06-07T06:30:01.763Z"
  },
  {
    "visit": 124,
    "longitude": 120.20940420105,
    "latitude": 23.002125608966,
    "name": "台南中山公園捐血站",
    "date": "2016-06-07T06:30:01.763Z"
  },
  {
    "visit": 124,
    "longitude": 120.19998,
    "latitude": 23.00013,
    "name": "丹丹漢堡成功店",
    "date": "2016-06-07T06:30:01.763Z"
  },
  {
    "visit": 131,
    "longitude": 120.21281128346,
    "latitude": 22.996978888208,
    "name": "台南火車站",
    "date": "2016-06-07T06:30:01.763Z"
  },
  {
    "visit": 153,
    "longitude": 120.20409,
    "latitude": 22.98904,
    "name": "莉莉水果店",
    "date": "2016-06-06"
  },
  {
    "visit": 160,
    "longitude": 120.1876511,
    "latitude": 22.9890909,
    "name": "Omaya春川炒雞台南永華店",
    "date": "2016-06-07T06:30:01.763Z"
  },
  {
    "visit": 173,
    "longitude": 120.20457,
    "latitude": 22.99017,
    "name": "台南 孔廟",
    "date": "2016-06-07T06:30:01.763Z"
  },
  {
    "visit": 180,
    "longitude": 120.21857,
    "latitude": 22.98422,
    "name": "深藍咖啡館",
    "date": "2016-06-07T06:30:01.763Z"
  },
  {
    "visit": 186,
    "longitude": 120.20281111111,
    "latitude": 22.9975,
    "name": "Fort Provintia",
    "date": "2016-06-07T06:30:01.763Z"
  },
  {
    "visit": 189,
    "longitude": 120.18382,
    "latitude": 22.99347,
    "name": "碳佐麻里 -府前店",
    "date": "2016-06-07T06:30:01.763Z"
  },
  {
    "visit": 190,
    "longitude": 120.21666666667,
    "latitude": 23,
    "name": "National Cheng Kung University",
    "date": "2016-06-07T06:30:01.763Z"
  },
  {
    "visit": 190,
    "longitude": 120.21722757835,
    "latitude": 22.996498061546,
    "name": "國立成功大學",
    "date": "2016-06-07T06:30:01.763Z"
  },
  {
    "visit": 209,
    "longitude": 120.22155555556,
    "latitude": 22.974833333333,
    "name": "Tainan Municipal Cultural Center",
    "date": "2016-06-07T06:30:01.763Z"
  },
  {
    "visit": 226,
    "longitude": 120.16711,
    "latitude": 22.9977899,
    "name": "安平運河河畔",
    "date": "2016-06-07T06:30:01.763Z"
  },
  {
    "visit": 232,
    "longitude": 120.20086430918,
    "latitude": 22.993856822747,
    "name": "台南裕成水果店",
    "date": "2016-06-07T06:30:01.763Z"
  },
  {
    "visit": 234,
    "longitude": 120.19935552132,
    "latitude": 22.987762026228,
    "name": "Silks Place Tainan 台南晶英酒店",
    "date": "2016-06-07T06:30:01.763Z"
  },
  {
    "visit": 297,
    "longitude": 120.21638888889,
    "latitude": 22.994166666667,
    "name": "National Tainan First Senior High School",
    "date": "2016-06-07T06:30:01.763Z"
  },
  {
    "visit": 313,
    "longitude": 120.20441911806,
    "latitude": 22.979987647183,
    "name": "台南市勞工育樂中心",
    "date": "2016-06-07T06:30:01.763Z"
  },
  {
    "visit": 330,
    "longitude": 120.212917769,
    "latitude": 22.99704129708,
    "name": "臺南火車站 Tainan Train Station",
    "date": "2016-06-07T06:30:01.763Z"
  },
  {
    "visit": 367,
    "longitude": 120.23400289792,
    "latitude": 22.996153333333,
    "name": "台南 國賓影城",
    "date": "2016-06-07T06:30:01.763Z"
  },
  {
    "visit": 508,
    "longitude": 120.20722222222,
    "latitude": 22.983888888889,
    "name": "National University of Tainan",
    "date": "2016-06-07T06:30:01.763Z"
  },
  {
    "visit": 3268,
    "longitude": 120.21445207916,
    "latitude": 22.996932071012,
    "name": "古拉爵_台南遠百成功店",
    "date": "2016-06-07T06:30:01.763Z"
  }
]