[
  {
    "visit": 1,
    "longitude": 120.2797001206,
    "latitude": 23.095919773004,
    "name": "聯華電子"
  },
  {
    "visit": 1,
    "longitude": 120.21469788285,
    "latitude": 22.996140271894,
    "name": "香格里拉飯店B2F遠東宴會廳"
  },
  {
    "visit": 1,
    "longitude": 120.26278417842,
    "latitude": 23.018926752813,
    "name": "永大夜巿"
  },
  {
    "visit": 1,
    "longitude": 120.21881,
    "latitude": 22.97964,
    "name": "Malibu泰式料理餐廳"
  },
  {
    "visit": 1,
    "longitude": 120.18668,
    "latitude": 23.00243,
    "name": "宜得利家居"
  },
  {
    "visit": 1,
    "longitude": 120.22749418998,
    "latitude": 22.990084405328,
    "name": "多那之"
  },
  {
    "visit": 1,
    "longitude": 120.19657,
    "latitude": 22.99935,
    "name": "慕紅豆"
  },
  {
    "visit": 1,
    "longitude": 120.19995,
    "latitude": 22.9989,
    "name": "開基共善堂"
  },
  {
    "visit": 1,
    "longitude": 120.14699658705,
    "latitude": 22.989819453777,
    "name": "安平觀夕平台 Anping Sunset Platform"
  },
  {
    "visit": 1,
    "longitude": 120.28198967959,
    "latitude": 23.098611597355,
    "name": "Park17"
  },
  {
    "visit": 1,
    "longitude": 120.17913393594,
    "latitude": 22.997524545472,
    "name": "南山人壽台南分公司"
  },
  {
    "visit": 1,
    "longitude": 120.17137860457,
    "latitude": 22.985076631953,
    "name": "台南地方法院檢察署"
  },
  {
    "visit": 1,
    "longitude": 120.22109105269,
    "latitude": 22.982336017913,
    "name": "銀座日式料理"
  },
  {
    "visit": 1,
    "longitude": 120.21846061554,
    "latitude": 22.995345825567,
    "name": "鬥牛士二鍋成大店"
  },
  {
    "visit": 1,
    "longitude": 120.2386531499,
    "latitude": 22.982431252393,
    "name": "台南市復興國小"
  },
  {
    "visit": 1,
    "longitude": 120.19152027,
    "latitude": 22.981854910916,
    "name": "85度c咖啡蛋糕烘焙專賣店"
  },
  {
    "visit": 1,
    "longitude": 120.29356,
    "latitude": 22.99219,
    "name": "保西國小"
  },
  {
    "visit": 1,
    "longitude": 120.21083,
    "latitude": 22.99715,
    "name": "台南大飯店 Hotel Tainan"
  },
  {
    "visit": 1,
    "longitude": 120.21313,
    "latitude": 22.99242,
    "name": "臺南知事官邸"
  },
  {
    "visit": 2,
    "longitude": 120.20434058143,
    "latitude": 22.989832028403,
    "name": "台南市孔廟文化園區"
  },
  {
    "visit": 2,
    "longitude": 120.20767115689,
    "latitude": 22.98325435023,
    "name": "台南大學操場"
  },
  {
    "visit": 2,
    "longitude": 120.20994534264,
    "latitude": 22.99571851868,
    "name": "Focus百貨WorldGym"
  },
  {
    "visit": 2,
    "longitude": 120.17935,
    "latitude": 22.99326,
    "name": "綠色空間"
  },
  {
    "visit": 2,
    "longitude": 120.20493,
    "latitude": 22.98466,
    "name": "I - Mita 愛米塔。早午餐。輕食。蜜塔。"
  },
  {
    "visit": 2,
    "longitude": 120.23856556511,
    "latitude": 23.03948537297,
    "name": "台南應用科技大學B棟"
  },
  {
    "visit": 2,
    "longitude": 120.22693805104,
    "latitude": 23.002116403526,
    "name": "永林牛肉火鍋 台灣台南美食綜合料理 Tainan, Taiwan Local Delicious food: Yonlin Restaurant"
  },
  {
    "visit": 2,
    "longitude": 120.22279,
    "latitude": 22.97962,
    "name": "加州廚房"
  },
  {
    "visit": 2,
    "longitude": 120.186338,
    "latitude": 22.9854133,
    "name": "台南南區"
  },
  {
    "visit": 2,
    "longitude": 120.22276917184,
    "latitude": 23.024579240326,
    "name": "南台科技大學星巴克"
  },
  {
    "visit": 2,
    "longitude": 120.22833,
    "latitude": 22.99349,
    "name": "Domo Pann 多麼胖咖啡東興店"
  },
  {
    "visit": 3,
    "longitude": 120.2331082478,
    "latitude": 22.990812924633,
    "name": "藍屋おいや和風御膳-南紡夢時代"
  },
  {
    "visit": 3,
    "longitude": 120.20473,
    "latitude": 23.00243,
    "name": "大歡喜"
  },
  {
    "visit": 3,
    "longitude": 120.21150978657,
    "latitude": 22.989533475104,
    "name": "Map北門形象館"
  },
  {
    "visit": 3,
    "longitude": 120.2041,
    "latitude": 22.99374,
    "name": "台南天壇－天公廟"
  },
  {
    "visit": 3,
    "longitude": 120.2101593,
    "latitude": 22.9956303,
    "name": "Focus 11F 二鍋(壽喜燒)"
  },
  {
    "visit": 3,
    "longitude": 120.21095,
    "latitude": 22.99473,
    "name": "麻吉的店(複合式餐飲)"
  },
  {
    "visit": 4,
    "longitude": 120.19876017363,
    "latitude": 22.986752747775,
    "name": "台南新光三越西門店花月嵐拉麵"
  },
  {
    "visit": 4,
    "longitude": 120.3077311,
    "latitude": 23.0297293,
    "name": "新化天合釣蝦場"
  },
  {
    "visit": 4,
    "longitude": 120.2072,
    "latitude": 22.98107,
    "name": "府城體育公園杏仁豆腐冰"
  },
  {
    "visit": 4,
    "longitude": 120.20546,
    "latitude": 22.98454,
    "name": "波哥三店（南寧街）"
  },
  {
    "visit": 4,
    "longitude": 120.2002396,
    "latitude": 22.99754461,
    "name": "悦津鹹粥"
  },
  {
    "visit": 4,
    "longitude": 120.22685895897,
    "latitude": 22.998394782262,
    "name": "夫妻肺片-台南東和店"
  },
  {
    "visit": 4,
    "longitude": 120.25556446568,
    "latitude": 23.025382654581,
    "name": "永康麥當勞中山店"
  },
  {
    "visit": 4,
    "longitude": 120.19841,
    "latitude": 22.99398,
    "name": "JJ-W Hotel"
  },
  {
    "visit": 4,
    "longitude": 120.235154067,
    "latitude": 23.003941326251,
    "name": "爭鮮迴轉寿司 Sushi Express 中華店"
  },
  {
    "visit": 4,
    "longitude": 120.213888889,
    "latitude": 22.9886111111,
    "name": "Tainan Theological College and Seminary"
  },
  {
    "visit": 4,
    "longitude": 120.17265,
    "latitude": 22.99114,
    "name": "Daylight光合箱子"
  },
  {
    "visit": 4,
    "longitude": 120.20828191015,
    "latitude": 23.000280946257,
    "name": "紅狼美式酒吧"
  },
  {
    "visit": 4,
    "longitude": 120.2145796297,
    "latitude": 22.99636286319,
    "name": "香格里拉國際大飯店"
  },
  {
    "visit": 4,
    "longitude": 120.22317,
    "latitude": 22.98084,
    "name": "準媽媽婦嬰用品專賣店(直營系統)"
  },
  {
    "visit": 5,
    "longitude": 120.18938,
    "latitude": 22.9973,
    "name": "新臨安橋-台南彩虹橋"
  },
  {
    "visit": 5,
    "longitude": 120.19656153963,
    "latitude": 22.994845396489,
    "name": "Mumu白姆森林（美、義料理）"
  },
  {
    "visit": 5,
    "longitude": 120.18655381206,
    "latitude": 22.991333489171,
    "name": "台南市市政府籃球場"
  },
  {
    "visit": 5,
    "longitude": 120.24821,
    "latitude": 23.18378,
    "name": "阿榮牛肉湯"
  },
  {
    "visit": 5,
    "longitude": 120.25168441453,
    "latitude": 22.99871999678,
    "name": "異人館咖啡部屋 崑山店"
  },
  {
    "visit": 5,
    "longitude": 120.20519782594,
    "latitude": 22.99010517545,
    "name": "孔廟老街"
  },
  {
    "visit": 5,
    "longitude": 120.22342,
    "latitude": 22.9935,
    "name": "開普三號店 CAPE CAFE 3"
  },
  {
    "visit": 5,
    "longitude": 120.48169806656,
    "latitude": 22.887994162347,
    "name": "高雄旗山老街"
  },
  {
    "visit": 5,
    "longitude": 120.16316,
    "latitude": 22.99977,
    "name": "安平周氏蝦捲"
  },
  {
    "visit": 6,
    "longitude": 120.16334912908,
    "latitude": 23.000192375721,
    "name": "台南安平古堡老街"
  },
  {
    "visit": 6,
    "longitude": 120.21433034923,
    "latitude": 22.996634510367,
    "name": "台南遠東香格里拉10FBuffet"
  },
  {
    "visit": 6,
    "longitude": 120.20792,
    "latitude": 23.0147,
    "name": "　花園釣蝦場"
  },
  {
    "visit": 6,
    "longitude": 120.2073,
    "latitude": 22.979,
    "name": "歡喜樓"
  },
  {
    "visit": 6,
    "longitude": 120.19615299984,
    "latitude": 23.001582749048,
    "name": "Mr.wheat 小麥先生創意料理 - 台南金華店"
  },
  {
    "visit": 6,
    "longitude": 120.19499780736,
    "latitude": 22.985589537213,
    "name": "牽手海產攤"
  },
  {
    "visit": 6,
    "longitude": 120.22538,
    "latitude": 22.97132,
    "name": "崇明國小"
  },
  {
    "visit": 6,
    "longitude": 120.22675735848,
    "latitude": 22.969023773846,
    "name": "台南市立醫院急診室"
  },
  {
    "visit": 7,
    "longitude": 120.22107832478,
    "latitude": 23.024788077567,
    "name": "Golden Brother's Dormit0ry"
  },
  {
    "visit": 7,
    "longitude": 120.21200062511,
    "latitude": 22.99715067333,
    "name": "臺南火車站"
  },
  {
    "visit": 7,
    "longitude": 120.24338,
    "latitude": 22.98633,
    "name": "關聖里活動中心"
  },
  {
    "visit": 7,
    "longitude": 120.30165258872,
    "latitude": 23.077691096642,
    "name": "Dartwits Dormitory No.1 Guoji Road Shinsi District Tainan City Taiwan"
  },
  {
    "visit": 7,
    "longitude": 120.19964562025,
    "latitude": 22.992108589983,
    "name": "松仔腳燒烤海產"
  },
  {
    "visit": 7,
    "longitude": 120.209983,
    "latitude": 22.995801478,
    "name": "台南Focus"
  },
  {
    "visit": 7,
    "longitude": 120.1534450108,
    "latitude": 23.000111199536,
    "name": "台南四草濕地（台江國家公園）綠色隧道"
  },
  {
    "visit": 7,
    "longitude": 120.2185917305,
    "latitude": 22.988758918,
    "name": "勝利國小"
  },
  {
    "visit": 8,
    "longitude": 120.20887197922,
    "latitude": 22.996604862795,
    "name": "行政院衛生署台南醫院"
  },
  {
    "visit": 8,
    "longitude": 120.25086971588,
    "latitude": 23.03161715053,
    "name": "台南永康歐洲世界"
  },
  {
    "visit": 8,
    "longitude": 120.18570852685,
    "latitude": 22.998042744245,
    "name": "台南市安平區運河"
  },
  {
    "visit": 8,
    "longitude": 120.21052887689,
    "latitude": 22.994172996672,
    "name": "萬昌起義"
  },
  {
    "visit": 8,
    "longitude": 120.22571941866,
    "latitude": 23.006471724229,
    "name": "南園街鍋貼"
  },
  {
    "visit": 8,
    "longitude": 120.200817,
    "latitude": 22.981624,
    "name": "國立臺南家齊女子高級中學"
  },
  {
    "visit": 8,
    "longitude": 120.14720880956,
    "latitude": 22.990248722282,
    "name": "安平觀夕平臺"
  },
  {
    "visit": 8,
    "longitude": 120.21791447721,
    "latitude": 22.984200263238,
    "name": "星巴克 府榮門市"
  },
  {
    "visit": 8,
    "longitude": 120.18620022743,
    "latitude": 22.984485641886,
    "name": "凱渥時尚商務會館"
  },
  {
    "visit": 8,
    "longitude": 120.2273399,
    "latitude": 22.9591703,
    "name": "金滿座複合式釣蝦場"
  },
  {
    "visit": 9,
    "longitude": 120.22043,
    "latitude": 22.97694,
    "name": "翰林茶館"
  },
  {
    "visit": 9,
    "longitude": 120.22355826271,
    "latitude": 22.999363759867,
    "name": "成大自強校區"
  },
  {
    "visit": 9,
    "longitude": 120.16316,
    "latitude": 22.99977,
    "name": "周氏蝦卷"
  },
  {
    "visit": 9,
    "longitude": 120.22101,
    "latitude": 22.9951,
    "name": "Noah's ark 諾亞方舟主廚餐廳"
  },
  {
    "visit": 9,
    "longitude": 120.2160109703,
    "latitude": 22.985807155289,
    "name": "Kadoya喫茶店"
  },
  {
    "visit": 9,
    "longitude": 120.20423,
    "latitude": 22.98883,
    "name": "台南愛國婦人會館"
  },
  {
    "visit": 10,
    "longitude": 120.21793,
    "latitude": 22.9917,
    "name": "波哥茶飲(台南勝利店)"
  },
  {
    "visit": 10,
    "longitude": 120.17461,
    "latitude": 22.99818,
    "name": "台南周氏蝦捲總店"
  },
  {
    "visit": 10,
    "longitude": 120.1938015,
    "latitude": 23.0099397,
    "name": "好事多COSTCO"
  },
  {
    "visit": 10,
    "longitude": 120.20431,
    "latitude": 22.98574,
    "name": "迦南水果店"
  },
  {
    "visit": 11,
    "longitude": 120.22100732643,
    "latitude": 22.990755954617,
    "name": "飛饗創意西式料理-旗艦總店"
  },
  {
    "visit": 11,
    "longitude": 120.17490645118,
    "latitude": 22.998079110914,
    "name": "台南安平周式煆捲"
  },
  {
    "visit": 11,
    "longitude": 120.2041,
    "latitude": 22.99374,
    "name": "台灣首廟天壇天公廟"
  },
  {
    "visit": 11,
    "longitude": 120.20669,
    "latitude": 23.01232,
    "name": "千喜火鍋館"
  },
  {
    "visit": 12,
    "longitude": 120.18773261116,
    "latitude": 23.007500481868,
    "name": "天成複合式主題館"
  },
  {
    "visit": 12,
    "longitude": 120.21332403897,
    "latitude": 23.003999193997,
    "name": "野宴日式炭火燒肉-北門店"
  },
  {
    "visit": 12,
    "longitude": 120.25500522743,
    "latitude": 23.036751438841,
    "name": "永康駕訓班"
  },
  {
    "visit": 13,
    "longitude": 120.20615,
    "latitude": 22.99836,
    "name": "大觀音亭"
  },
  {
    "visit": 13,
    "longitude": 120.2331697117,
    "latitude": 22.991712185471,
    "name": "涓豆腐韓式料理-台南夢時代店"
  },
  {
    "visit": 13,
    "longitude": 120.22057687337,
    "latitude": 22.9922225016,
    "name": "韓朝 東寧店"
  },
  {
    "visit": 13,
    "longitude": 120.22853,
    "latitude": 23.03277,
    "name": "家樂福"
  },
  {
    "visit": 13,
    "longitude": 120.1474464754,
    "latitude": 22.997215896129,
    "name": "海之味海產餐廳 - 旗艦店"
  },
  {
    "visit": 13,
    "longitude": 120.22185559466,
    "latitude": 22.989340099854,
    "name": "私立長榮高級中學 Chang Jung Senior High School"
  },
  {
    "visit": 13,
    "longitude": 120.19918,
    "latitude": 22.99783,
    "name": "永樂燒肉飯"
  },
  {
    "visit": 14,
    "longitude": 120.1879653,
    "latitude": 23.0077551,
    "name": "天成複合式釣蝦埸"
  },
  {
    "visit": 14,
    "longitude": 120.15976038983,
    "latitude": 23.003754817156,
    "name": "德記洋行&安平樹屋"
  },
  {
    "visit": 14,
    "longitude": 120.22202,
    "latitude": 23.02062,
    "name": "奇美醫院- Chi Mei Hospital"
  },
  {
    "visit": 14,
    "longitude": 120.228,
    "latitude": 22.98987,
    "name": "俗俗賣芒果牛奶冰"
  },
  {
    "visit": 14,
    "longitude": 120.21382708233,
    "latitude": 23.003583742246,
    "name": "刺客炭火燒肉"
  },
  {
    "visit": 15,
    "longitude": 120.2419,
    "latitude": 22.9868099,
    "name": "忠味麵店"
  },
  {
    "visit": 15,
    "longitude": 120.22328,
    "latitude": 22.98706,
    "name": "比薩茶坊"
  },
  {
    "visit": 15,
    "longitude": 120.22091,
    "latitude": 22.97639,
    "name": "老婆的菜"
  },
  {
    "visit": 15,
    "longitude": 120.2661,
    "latitude": 23.0133,
    "name": "台南市永康區大灣"
  },
  {
    "visit": 15,
    "longitude": 120.25358891503,
    "latitude": 23.038462654754,
    "name": "永康火車站 Yongkang Station"
  },
  {
    "visit": 15,
    "longitude": 120.19780200611,
    "latitude": 22.988245991803,
    "name": "台南西門錢櫃KTV"
  },
  {
    "visit": 16,
    "longitude": 120.19768239964,
    "latitude": 22.993561897255,
    "name": "邱家傳統小吃小卷米粉"
  },
  {
    "visit": 16,
    "longitude": 120.24887363544,
    "latitude": 23.190200644471,
    "name": "麻豆監理站"
  },
  {
    "visit": 16,
    "longitude": 120.19949022102,
    "latitude": 22.995107637143,
    "name": "花見宇治抹茶甘味処"
  },
  {
    "visit": 16,
    "longitude": 120.2094579,
    "latitude": 22.9956648,
    "name": "南方公園-森菓鯛魚燒霜淇淋"
  },
  {
    "visit": 17,
    "longitude": 120.22334259435,
    "latitude": 23.004627826304,
    "name": "一二三冰城"
  },
  {
    "visit": 17,
    "longitude": 120.29494,
    "latitude": 23.13015,
    "name": "新萬香餐廳"
  },
  {
    "visit": 17,
    "longitude": 120.29456,
    "latitude": 23.07543,
    "name": "新市區多功能活動中心"
  },
  {
    "visit": 18,
    "longitude": 120.25565253776,
    "latitude": 23.025947282067,
    "name": "永康國小"
  },
  {
    "visit": 18,
    "longitude": 120.22234,
    "latitude": 22.9828,
    "name": "築地專售壽司"
  },
  {
    "visit": 18,
    "longitude": 120.21456,
    "latitude": 22.99382,
    "name": "AJ Burger美式餐廳"
  },
  {
    "visit": 18,
    "longitude": 120.22294,
    "latitude": 23.00301,
    "name": "魚羊鮮豆咖啡館"
  },
  {
    "visit": 19,
    "longitude": 120.21253823351,
    "latitude": 22.99895734514,
    "name": "統聯客運 北門站"
  },
  {
    "visit": 19,
    "longitude": 120.22853,
    "latitude": 23.03277,
    "name": "爭鮮迴轉壽司-中正(家)"
  },
  {
    "visit": 20,
    "longitude": 120.21445207916,
    "latitude": 22.996932071012,
    "name": "古拉爵_台南遠百成功店"
  },
  {
    "visit": 20,
    "longitude": 120.20207,
    "latitude": 22.99674,
    "name": "台南武廟"
  },
  {
    "visit": 20,
    "longitude": 120.205319,
    "latitude": 22.9960915,
    "name": "大遠百華納威秀影城"
  },
  {
    "visit": 20,
    "longitude": 120.21113521267,
    "latitude": 22.975482946898,
    "name": "阿輝黑輪"
  },
  {
    "visit": 21,
    "longitude": 120.22650837005,
    "latitude": 23.031447811711,
    "name": "HONDA永康店"
  },
  {
    "visit": 21,
    "longitude": 120.30559528522,
    "latitude": 23.030330987487,
    "name": "新化體育公園"
  },
  {
    "visit": 22,
    "longitude": 120.1596677562,
    "latitude": 23.003335876822,
    "name": "安平樹屋"
  },
  {
    "visit": 22,
    "longitude": 120.19875107436,
    "latitude": 22.986704450981,
    "name": "新天地1010湘菜館"
  },
  {
    "visit": 22,
    "longitude": 120.25188,
    "latitude": 23.02915,
    "name": "聯盈發點心專門店"
  },
  {
    "visit": 23,
    "longitude": 120.22672155736,
    "latitude": 22.968563685346,
    "name": "臺南市市立醫院"
  },
  {
    "visit": 23,
    "longitude": 120.21573445008,
    "latitude": 23.001581822725,
    "name": "MSGT成功大學綠色魔法學校"
  },
  {
    "visit": 23,
    "longitude": 120.3077,
    "latitude": 23.0345,
    "name": "台南-新化老街"
  },
  {
    "visit": 23,
    "longitude": 120.23419761569,
    "latitude": 22.995175816549,
    "name": "王品台塑牛排台南中華東店"
  },
  {
    "visit": 23,
    "longitude": 120.2957203204,
    "latitude": 23.131418048635,
    "name": "善化天佳KTV釣蝦場"
  },
  {
    "visit": 23,
    "longitude": 120.22271818023,
    "latitude": 22.974340467603,
    "name": "235巷義大利麵 台南文化店"
  },
  {
    "visit": 24,
    "longitude": 120.21818488133,
    "latitude": 23.002205663651,
    "name": "台南成大醫院"
  },
  {
    "visit": 24,
    "longitude": 120.19637416831,
    "latitude": 22.997658165585,
    "name": "神農街"
  },
  {
    "visit": 24,
    "longitude": 120.29100980486,
    "latitude": 23.067827738028,
    "name": "台南新市區"
  },
  {
    "visit": 24,
    "longitude": 120.1862869,
    "latitude": 22.9779606,
    "name": "是吉祥火鍋"
  },
  {
    "visit": 24,
    "longitude": 120.19769,
    "latitude": 22.99334,
    "name": "江水號"
  },
  {
    "visit": 24,
    "longitude": 120.2336752,
    "latitude": 22.9912468,
    "name": "跳舞香水 南紡夢時代"
  },
  {
    "visit": 25,
    "longitude": 120.20556460294,
    "latitude": 22.985204217647,
    "name": "Tainan City,taiwan ROC"
  },
  {
    "visit": 25,
    "longitude": 120.19568,
    "latitude": 22.99061,
    "name": "南廠保安宮"
  },
  {
    "visit": 26,
    "longitude": 120.20863,
    "latitude": 23.01757,
    "name": "榮星餐廳"
  },
  {
    "visit": 26,
    "longitude": 120.18835036767,
    "latitude": 22.992543174726,
    "name": "台南市移民署"
  },
  {
    "visit": 26,
    "longitude": 120.2402,
    "latitude": 22.99803,
    "name": "復興老兵文化園區"
  },
  {
    "visit": 27,
    "longitude": 120.2217,
    "latitude": 22.97604,
    "name": "三皇三家崇明店"
  },
  {
    "visit": 27,
    "longitude": 120.20927,
    "latitude": 22.9957,
    "name": "South Park南方公園"
  },
  {
    "visit": 27,
    "longitude": 120.22357,
    "latitude": 22.97369,
    "name": "有間冰舖 崇明店"
  },
  {
    "visit": 27,
    "longitude": 120.48392960005,
    "latitude": 22.88294067157,
    "name": "旗山"
  },
  {
    "visit": 27,
    "longitude": 120.24806508478,
    "latitude": 23.183110966778,
    "name": "台南巿麻豆區"
  },
  {
    "visit": 27,
    "longitude": 120.21526,
    "latitude": 22.98879,
    "name": "毛丼 丼飯專門店"
  },
  {
    "visit": 27,
    "longitude": 120.21016,
    "latitude": 22.9956299,
    "name": "focus 星巴克"
  },
  {
    "visit": 28,
    "longitude": 120.22334,
    "latitude": 22.97478,
    "name": "伊豆京風料理"
  },
  {
    "visit": 28,
    "longitude": 120.21069594405,
    "latitude": 23.001824288535,
    "name": "台南公園"
  },
  {
    "visit": 28,
    "longitude": 120.19617022702,
    "latitude": 22.99238386733,
    "name": "赤嵌棺材板"
  },
  {
    "visit": 28,
    "longitude": 120.21560359044,
    "latitude": 22.997793962917,
    "name": "NCKU光復校區 成功廳"
  },
  {
    "visit": 29,
    "longitude": 120.20315,
    "latitude": 22.99505,
    "name": "台南阿美飯店"
  },
  {
    "visit": 29,
    "longitude": 120.22367643468,
    "latitude": 22.980259029458,
    "name": "薄多義bite 2 Eat台南祟學店"
  },
  {
    "visit": 30,
    "longitude": 120.21814627428,
    "latitude": 22.994897958529,
    "name": "勝利早點"
  },
  {
    "visit": 30,
    "longitude": 120.2192078,
    "latitude": 23.0021992,
    "name": "成大醫院"
  },
  {
    "visit": 31,
    "longitude": 120.23413,
    "latitude": 22.99545,
    "name": "國賓影城 Ambassador Theatres"
  },
  {
    "visit": 32,
    "longitude": 120.18730048133,
    "latitude": 22.990860843203,
    "name": "台南生活美學館"
  },
  {
    "visit": 32,
    "longitude": 120.21432935342,
    "latitude": 22.99653715876,
    "name": "香格里拉飯店38樓醉月樓"
  },
  {
    "visit": 33,
    "longitude": 120.20677690043,
    "latitude": 22.985030044598,
    "name": "台南大學文薈樓"
  },
  {
    "visit": 33,
    "longitude": 120.206042,
    "latitude": 22.99549,
    "name": "Mr.onion 洋蔥牛排"
  },
  {
    "visit": 34,
    "longitude": 120.17125893886,
    "latitude": 22.990979544767,
    "name": "星巴克-永華國平"
  },
  {
    "visit": 34,
    "longitude": 120.20962796203,
    "latitude": 22.994846496922,
    "name": "Dazzling蜜糖吐司"
  },
  {
    "visit": 34,
    "longitude": 120.23401475527,
    "latitude": 22.99588294623,
    "name": "World Gym 國賓店"
  },
  {
    "visit": 35,
    "longitude": 120.22123,
    "latitude": 22.9956299,
    "name": "KAFFE at HOME"
  },
  {
    "visit": 35,
    "longitude": 120.19907697497,
    "latitude": 22.987889801147,
    "name": "台南晶英酒店 Robin's Grill•teppan•lounge"
  },
  {
    "visit": 35,
    "longitude": 120.22857,
    "latitude": 23.00394,
    "name": "千畦種子博物館"
  },
  {
    "visit": 36,
    "longitude": 120.18758909,
    "latitude": 22.991338212222,
    "name": "國立台南生活美學館(演藝廳)"
  },
  {
    "visit": 38,
    "longitude": 120.25927524024,
    "latitude": 23.021276174532,
    "name": "永康探索公園"
  },
  {
    "visit": 38,
    "longitude": 120.16354365875,
    "latitude": 22.990438462529,
    "name": "億載國小"
  },
  {
    "visit": 38,
    "longitude": 120.18712944447,
    "latitude": 22.997735053692,
    "name": "星巴克 Starbucks 府中門市"
  },
  {
    "visit": 38,
    "longitude": 120.20543,
    "latitude": 22.99391,
    "name": "信燒烤"
  },
  {
    "visit": 39,
    "longitude": 120.20801737834,
    "latitude": 22.987952712977,
    "name": "延平郡王祠"
  },
  {
    "visit": 39,
    "longitude": 120.1901943271,
    "latitude": 23.040243567454,
    "name": "同安夜市"
  },
  {
    "visit": 40,
    "longitude": 120.22554715615,
    "latitude": 22.934710000308,
    "name": "台南白宮～奇美博物館"
  },
  {
    "visit": 40,
    "longitude": 120.2100688535,
    "latitude": 22.995789099976,
    "name": "Focus時尚流行館"
  },
  {
    "visit": 42,
    "longitude": 120.22115,
    "latitude": 22.99579,
    "name": "庫肯花園"
  },
  {
    "visit": 43,
    "longitude": 120.22918,
    "latitude": 23.0002299,
    "name": "台南極鮮火鍋"
  },
  {
    "visit": 44,
    "longitude": 120.214758,
    "latitude": 22.9937616,
    "name": "黑工號 嫩仙草"
  },
  {
    "visit": 44,
    "longitude": 120.20270271355,
    "latitude": 22.991666504651,
    "name": "台南市陶板屋忠義店"
  },
  {
    "visit": 45,
    "longitude": 120.48197906667,
    "latitude": 22.888082504272,
    "name": "旗山技仔冰城總店"
  },
  {
    "visit": 45,
    "longitude": 120.20517827393,
    "latitude": 22.982567423057,
    "name": "懷舊小棧 - 五妃廟口豆腐冰"
  },
  {
    "visit": 46,
    "longitude": 120.18199422583,
    "latitude": 22.992884723416,
    "name": "上原日本料理"
  },
  {
    "visit": 46,
    "longitude": 120.22966,
    "latitude": 22.99005,
    "name": "新都巷日本料理"
  },
  {
    "visit": 47,
    "longitude": 120.21306038132,
    "latitude": 22.989398637653,
    "name": "Tainan Sin Lau hospital"
  },
  {
    "visit": 48,
    "longitude": 120.24409461827,
    "latitude": 22.989786633582,
    "name": "Starbucks星巴克典藏門市-虎尾寮"
  },
  {
    "visit": 48,
    "longitude": 120.22068,
    "latitude": 22.97383,
    "name": "騎士堡愛麗絲的家"
  },
  {
    "visit": 49,
    "longitude": 120.18932,
    "latitude": 22.99203,
    "name": "多一點咖啡館-台南美學館-品牌特許授權店"
  },
  {
    "visit": 49,
    "longitude": 120.15774199652,
    "latitude": 22.994065245015,
    "name": "林默娘公園"
  },
  {
    "visit": 50,
    "longitude": 120.21837771527,
    "latitude": 22.981626854754,
    "name": "台南監理站"
  },
  {
    "visit": 50,
    "longitude": 120.19726951584,
    "latitude": 22.994355840866,
    "name": "蜷尾家 甘味处。。。散步甜食"
  },
  {
    "visit": 50,
    "longitude": 120.19821037581,
    "latitude": 22.98739150113,
    "name": "台南新光三越新天地-新光影城"
  },
  {
    "visit": 51,
    "longitude": 120.08330892488,
    "latitude": 23.218290256758,
    "name": "馬沙溝海水浴場 Masago Beach"
  },
  {
    "visit": 52,
    "longitude": 120.20204,
    "latitude": 22.99692,
    "name": "山根壽司"
  },
  {
    "visit": 52,
    "longitude": 120.1948633,
    "latitude": 22.9892868,
    "name": "六千牛肉湯"
  },
  {
    "visit": 53,
    "longitude": 120.1680442,
    "latitude": 22.9865629,
    "name": "In STYLE hair studio"
  },
  {
    "visit": 54,
    "longitude": 120.20041416376,
    "latitude": 22.994201004548,
    "name": "冰鄉"
  },
  {
    "visit": 55,
    "longitude": 120.18560977981,
    "latitude": 22.998099378598,
    "name": "樂禾田 早午餐.日夕食"
  },
  {
    "visit": 57,
    "longitude": 120.17445042125,
    "latitude": 22.990767569571,
    "name": "台南綠色空間永華店"
  },
  {
    "visit": 59,
    "longitude": 120.18925633512,
    "latitude": 22.989678207079,
    "name": "神田日本料理"
  },
  {
    "visit": 60,
    "longitude": 120.23308607346,
    "latitude": 22.990726758622,
    "name": "南紡夢時代-華納影城"
  },
  {
    "visit": 63,
    "longitude": 120.18655181945,
    "latitude": 22.986777392356,
    "name": "輕井澤【鍋の物】台南店"
  },
  {
    "visit": 63,
    "longitude": 120.1771818012,
    "latitude": 23.162971188068,
    "name": "台南佳里區"
  },
  {
    "visit": 63,
    "longitude": 120.18091,
    "latitude": 22.9895299,
    "name": "吾亦私永華店"
  },
  {
    "visit": 64,
    "longitude": 120.08332497859,
    "latitude": 23.218327424711,
    "name": "馬沙溝濱海遊憩區"
  },
  {
    "visit": 69,
    "longitude": 120.1971893,
    "latitude": 22.9944401,
    "name": "泰成水果店"
  },
  {
    "visit": 70,
    "longitude": 120.18658900007,
    "latitude": 22.986884329,
    "name": "輕井澤鍋物 台南店"
  },
  {
    "visit": 71,
    "longitude": 120.22145724028,
    "latitude": 22.975077761533,
    "name": "台南市立文化中心演藝廳"
  },
  {
    "visit": 71,
    "longitude": 120.20618754185,
    "latitude": 22.995549850652,
    "name": "台南大遠百-華納威秀"
  },
  {
    "visit": 77,
    "longitude": 120.18872419,
    "latitude": 23.0133523,
    "name": "大港國小"
  },
  {
    "visit": 82,
    "longitude": 120.18671904611,
    "latitude": 23.007568949352,
    "name": "和緯黃昏市場"
  },
  {
    "visit": 83,
    "longitude": 120.19793,
    "latitude": 22.98777,
    "name": "Tayih Landis Hotel Tainan 台南大億麗緻酒店"
  },
  {
    "visit": 84,
    "longitude": 120.19794,
    "latitude": 22.98834,
    "name": "台南錢櫃西門店"
  },
  {
    "visit": 84,
    "longitude": 120.16729,
    "latitude": 22.99894,
    "name": "安平古堡"
  },
  {
    "visit": 87,
    "longitude": 120.19343913971,
    "latitude": 23.010363926672,
    "name": "Costco 台南店"
  },
  {
    "visit": 93,
    "longitude": 120.22245524085,
    "latitude": 22.97311027656,
    "name": "巴克禮紀念公園"
  },
  {
    "visit": 95,
    "longitude": 120.22170290993,
    "latitude": 23.020359741622,
    "name": "奇美醫院急診室"
  },
  {
    "visit": 96,
    "longitude": 120.161134,
    "latitude": 23.003993,
    "name": "臺南安平老街"
  },
  {
    "visit": 96,
    "longitude": 120.20195563603,
    "latitude": 23.002995059302,
    "name": "夏慕尼公園店"
  },
  {
    "visit": 100,
    "longitude": 120.20981575793,
    "latitude": 22.995100521131,
    "name": "新光三越 台南中山店"
  },
  {
    "visit": 103,
    "longitude": 120.1976860957,
    "latitude": 22.993864149254,
    "name": "國華街淺草青春新天地"
  },
  {
    "visit": 118,
    "longitude": 120.21941518344,
    "latitude": 23.002217206316,
    "name": "成大醫院住院大樓"
  },
  {
    "visit": 126,
    "longitude": 120.19935552132,
    "latitude": 22.987762026228,
    "name": "Silks Place Tainan 台南晶英酒店"
  },
  {
    "visit": 127,
    "longitude": 120.21543509477,
    "latitude": 23.040711711082,
    "name": "大安順ktv"
  },
  {
    "visit": 129,
    "longitude": 120.22749,
    "latitude": 23.01801,
    "name": "碳佐麻里燒肉和食-永康中華店"
  },
  {
    "visit": 133,
    "longitude": 120.2008133,
    "latitude": 22.9818993,
    "name": "家齊女中"
  },
  {
    "visit": 138,
    "longitude": 120.24263749071,
    "latitude": 23.043689602214,
    "name": "桂田酒店－阿力海百匯自助餐廳"
  },
  {
    "visit": 146,
    "longitude": 120.21429077317,
    "latitude": 22.996495579963,
    "name": "Shangri-La Tainan 香格里拉台南遠東國際大飯店"
  },
  {
    "visit": 153,
    "longitude": 120.20409,
    "latitude": 22.98904,
    "name": "莉莉水果店"
  },
  {
    "visit": 192,
    "longitude": 120.21921,
    "latitude": 23.0021999,
    "name": "國立成功大學醫學院"
  },
  {
    "visit": 200,
    "longitude": 120.1876511,
    "latitude": 22.9890909,
    "name": "Omaya春川炒雞台南永華店"
  },
  {
    "visit": 207,
    "longitude": 120.19721899186,
    "latitude": 22.986983811672,
    "name": "藍晒圖文創園區"
  },
  {
    "visit": 209,
    "longitude": 120.2075155,
    "latitude": 22.9857107,
    "name": "台南大學"
  },
  {
    "visit": 217,
    "longitude": 120.16080528271,
    "latitude": 23.001228038111,
    "name": "台南市安平古堡&老街"
  },
  {
    "visit": 229,
    "longitude": 120.20750741617,
    "latitude": 22.984047594813,
    "name": "國立台南大學"
  },
  {
    "visit": 274,
    "longitude": 120.19863961208,
    "latitude": 22.987050210035,
    "name": "新光三越 台南西門店"
  },
  {
    "visit": 284,
    "longitude": 120.23293733967,
    "latitude": 22.99103966379,
    "name": "\"台南南紡\"夢時代購物中心"
  },
  {
    "visit": 379,
    "longitude": 120.21758726512,
    "latitude": 22.996685621924,
    "name": "成功大學-中正堂"
  },
  {
    "visit": 565,
    "longitude": 120.2020721,
    "latitude": 23.0013294,
    "name": "立人國小"
  },
  {
    "visit": 584,
    "longitude": 120.1955531698,
    "latitude": 23.009940715039,
    "name": "彩虹日本料理和緯店"
  },
  {
    "visit": 739,
    "longitude": 120.2167637,
    "latitude": 23.0074153,
    "name": "開元國小"
  },
  {
    "visit": 1115,
    "longitude": 120.21722757835,
    "latitude": 22.996498061546,
    "name": "國立成功大學"
  },
  {
    "visit": 1125,
    "longitude": 120.21666666667,
    "latitude": 23,
    "name": "National Cheng Kung University"
  }
]