[
  {
    "visit": 1,
    "longitude": 120.20855970866,
    "latitude": 23.011058118089,
    "name": "米蘭時尚髮型集團總管理處&教育中心",
    "date": "2016-09-16"
  },
  {
    "visit": 1,
    "longitude": 120.2063269,
    "latitude": 22.989597,
    "name": "台南府中街孔廟魅力商圈-2元黑輪",
    "date": "2016-09-16"
  },
  {
    "visit": 1,
    "longitude": 120.19844,
    "latitude": 22.9994799,
    "name": "梅鑫海產",
    "date": "2016-09-16"
  },
  {
    "visit": 1,
    "longitude": 120.22107832478,
    "latitude": 23.024788077567,
    "name": "Golden Brother's Dormit0ry",
    "date": "2016-09-16"
  },
  {
    "visit": 1,
    "longitude": 120.16623,
    "latitude": 22.99962,
    "name": "石門國小",
    "date": "2016-09-16"
  },
  {
    "visit": 1,
    "longitude": 120.18668,
    "latitude": 23.00243,
    "name": "宜得利家居",
    "date": "2016-09-16"
  },
  {
    "visit": 1,
    "longitude": 120.23061510943,
    "latitude": 22.998940995345,
    "name": "小東路旁一家無名的麵攤",
    "date": "2016-09-16"
  },
  {
    "visit": 1,
    "longitude": 120.20451181892,
    "latitude": 22.980124001035,
    "name": "葡萄王葡眾企業-台南會場勞工育樂中心",
    "date": "2016-09-16"
  },
  {
    "visit": 1,
    "longitude": 120.24004402706,
    "latitude": 22.982150906613,
    "name": "台南市立復興國中",
    "date": "2016-09-16"
  },
  {
    "visit": 1,
    "longitude": 120.22279,
    "latitude": 22.97962,
    "name": "加州廚房",
    "date": "2016-06-16T14:30:01.592Z"
  },
  {
    "visit": 1,
    "longitude": 120.21016,
    "latitude": 22.9956299,
    "name": "Focus 9F 斑鳩的窩",
    "date": "2016-09-16"
  },
  {
    "visit": 1,
    "longitude": 120.23308607346,
    "latitude": 22.990726758622,
    "name": "南紡夢時代-華納影城",
    "date": "2016-09-16"
  },
  {
    "visit": 1,
    "longitude": 120.221138,
    "latitude": 22.9953194,
    "name": "轉角餐廳 Corner Steak House",
    "date": "2016-06-16T14:30:01.592Z"
  },
  {
    "visit": 2,
    "longitude": 120.22100732643,
    "latitude": 22.990755954617,
    "name": "飛饗創意西式料理-旗艦總店",
    "date": "2016-06-16T14:30:01.592Z"
  },
  {
    "visit": 2,
    "longitude": 120.19841,
    "latitude": 22.99398,
    "name": "JJ-W Hotel",
    "date": "2016-06-16T14:30:01.592Z"
  },
  {
    "visit": 2,
    "longitude": 120.14409455291,
    "latitude": 22.996630960005,
    "name": "安平練車場",
    "date": "2016-09-16"
  },
  {
    "visit": 2,
    "longitude": 120.17066812002,
    "latitude": 22.992465802282,
    "name": "台南市立滑輪溜冰場",
    "date": "2016-09-16"
  },
  {
    "visit": 2,
    "longitude": 120.19763413239,
    "latitude": 22.993611368859,
    "name": "Chiuanhouse",
    "date": "2016-06-16T14:30:01.592Z"
  },
  {
    "visit": 2,
    "longitude": 120.17445042125,
    "latitude": 22.990767569571,
    "name": "台南綠色空間永華店",
    "date": "2016-09-16"
  },
  {
    "visit": 2,
    "longitude": 120.21573445008,
    "latitude": 23.001581822725,
    "name": "MSGT成功大學綠色魔法學校",
    "date": "2016-09-16"
  },
  {
    "visit": 2,
    "longitude": 120.16316,
    "latitude": 22.99977,
    "name": "周氏蝦卷",
    "date": "2016-09-16"
  },
  {
    "visit": 2,
    "longitude": 120.22082,
    "latitude": 22.97444,
    "name": "長榮桂冠2樓吃遍天下",
    "date": "2016-09-16"
  },
  {
    "visit": 2,
    "longitude": 120.206042,
    "latitude": 22.99549,
    "name": "Mr.onion 洋蔥牛排",
    "date": "2016-09-16"
  },
  {
    "visit": 2,
    "longitude": 120.20538,
    "latitude": 22.99803,
    "name": "異人館-成功店",
    "date": "2016-09-16"
  },
  {
    "visit": 2,
    "longitude": 120.22675735848,
    "latitude": 22.969023773846,
    "name": "台南市立醫院急診室",
    "date": "2016-09-16"
  },
  {
    "visit": 2,
    "longitude": 120.20207,
    "latitude": 22.99106,
    "name": "花川日式料理",
    "date": "2016-06-16T14:30:01.592Z"
  },
  {
    "visit": 2,
    "longitude": 120.2217,
    "latitude": 22.97604,
    "name": "三皇三家崇明店",
    "date": "2016-09-16"
  },
  {
    "visit": 2,
    "longitude": 120.19780200611,
    "latitude": 22.988245991803,
    "name": "台南西門錢櫃KTV",
    "date": "2016-09-16"
  },
  {
    "visit": 2,
    "longitude": 120.21083,
    "latitude": 22.99715,
    "name": "台南大飯店 Hotel Tainan",
    "date": "2016-06-16T14:30:01.592Z"
  },
  {
    "visit": 2,
    "longitude": 120.20562,
    "latitude": 22.98345,
    "name": "波哥3店",
    "date": "2016-09-16"
  },
  {
    "visit": 2,
    "longitude": 120.17913393594,
    "latitude": 22.997524545472,
    "name": "南山人壽台南分公司",
    "date": "2016-09-16"
  },
  {
    "visit": 2,
    "longitude": 120.25500522743,
    "latitude": 23.036751438841,
    "name": "永康駕訓班",
    "date": "2016-09-16"
  },
  {
    "visit": 2,
    "longitude": 120.22123,
    "latitude": 22.9956299,
    "name": "KAFFE at HOME",
    "date": "2016-06-16T14:30:01.592Z"
  },
  {
    "visit": 2,
    "longitude": 120.20127,
    "latitude": 23.00955,
    "name": "席瑪朵珈琲烘焙棧 Cermado cafe",
    "date": "2016-09-16"
  },
  {
    "visit": 2,
    "longitude": 120.21789,
    "latitude": 22.99447,
    "name": "CHADOR'咖啡茶朵",
    "date": "2016-09-16"
  },
  {
    "visit": 2,
    "longitude": 120.2336752,
    "latitude": 22.9912468,
    "name": "跳舞香水 南紡夢時代",
    "date": "2016-06-16T14:30:01.592Z"
  },
  {
    "visit": 3,
    "longitude": 120.22355826271,
    "latitude": 22.999363759867,
    "name": "成大自強校區",
    "date": "2016-09-16"
  },
  {
    "visit": 3,
    "longitude": 120.22101,
    "latitude": 22.9951,
    "name": "Noah's ark 諾亞方舟主廚餐廳",
    "date": "2016-06-16T14:30:01.592Z"
  },
  {
    "visit": 3,
    "longitude": 120.17265,
    "latitude": 22.99114,
    "name": "Daylight光合箱子",
    "date": "2016-06-16T14:30:01.592Z"
  },
  {
    "visit": 3,
    "longitude": 120.18655381206,
    "latitude": 22.991333489171,
    "name": "台南市市政府籃球場",
    "date": "2016-09-16"
  },
  {
    "visit": 3,
    "longitude": 120.1971893,
    "latitude": 22.9944401,
    "name": "泰成水果店",
    "date": "2016-06-16T14:30:01.592Z"
  },
  {
    "visit": 3,
    "longitude": 120.22342,
    "latitude": 22.9935,
    "name": "開普三號店 CAPE CAFE 3",
    "date": "2016-06-16T14:30:01.592Z"
  },
  {
    "visit": 3,
    "longitude": 120.20493,
    "latitude": 22.98466,
    "name": "I - Mita 愛米塔。早午餐。輕食。蜜塔。",
    "date": "2016-06-16T14:30:01.592Z"
  },
  {
    "visit": 3,
    "longitude": 120.1909041,
    "latitude": 22.974272408129,
    "name": "台南市麥當勞金華店",
    "date": "2016-09-16"
  },
  {
    "visit": 3,
    "longitude": 120.24338,
    "latitude": 22.98633,
    "name": "關聖里活動中心",
    "date": "2016-09-16"
  },
  {
    "visit": 3,
    "longitude": 120.20927,
    "latitude": 22.9957,
    "name": "South Park南方公園",
    "date": "2016-09-16"
  },
  {
    "visit": 3,
    "longitude": 120.24811824569,
    "latitude": 22.988060962604,
    "name": "中山高速公路上!!",
    "date": "2016-09-16"
  },
  {
    "visit": 4,
    "longitude": 120.16334912908,
    "latitude": 23.000192375721,
    "name": "台南安平古堡老街",
    "date": "2016-09-16"
  },
  {
    "visit": 4,
    "longitude": 120.17461,
    "latitude": 22.99818,
    "name": "台南周氏蝦捲總店",
    "date": "2016-06-16T14:30:01.592Z"
  },
  {
    "visit": 4,
    "longitude": 120.20962796203,
    "latitude": 22.994846496922,
    "name": "Dazzling蜜糖吐司",
    "date": "2016-09-16"
  },
  {
    "visit": 4,
    "longitude": 120.20546,
    "latitude": 22.98454,
    "name": "波哥三店（南寧街）",
    "date": "2016-09-16"
  },
  {
    "visit": 4,
    "longitude": 120.16839542661,
    "latitude": 22.997133560697,
    "name": "台南市立安平國中",
    "date": "2016-09-16"
  },
  {
    "visit": 4,
    "longitude": 120.21846061554,
    "latitude": 22.995345825567,
    "name": "鬥牛士二鍋成大店",
    "date": "2016-06-16T14:30:01.592Z"
  },
  {
    "visit": 4,
    "longitude": 120.235154067,
    "latitude": 23.003941326251,
    "name": "爭鮮迴轉寿司 Sushi Express 中華店",
    "date": "2016-09-16"
  },
  {
    "visit": 4,
    "longitude": 120.21313,
    "latitude": 22.99242,
    "name": "臺南知事官邸",
    "date": "2016-06-16T14:30:01.592Z"
  },
  {
    "visit": 4,
    "longitude": 120.48065,
    "latitude": 22.8883,
    "name": "旗山國小",
    "date": "2016-09-16"
  },
  {
    "visit": 4,
    "longitude": 120.22317,
    "latitude": 22.98084,
    "name": "準媽媽婦嬰用品專賣店(直營系統)",
    "date": "2016-06-16T14:30:01.592Z"
  },
  {
    "visit": 4,
    "longitude": 120.22136083815,
    "latitude": 22.9740211,
    "name": "德安百貨春水堂",
    "date": "2016-09-16"
  },
  {
    "visit": 4,
    "longitude": 120.22068,
    "latitude": 22.97383,
    "name": "誠品書店-德安百貨",
    "date": "2016-09-16"
  },
  {
    "visit": 4,
    "longitude": 120.22749418998,
    "latitude": 22.990084405328,
    "name": "多那之",
    "date": "2016-09-16"
  },
  {
    "visit": 4,
    "longitude": 120.24822,
    "latitude": 23.1848199,
    "name": "龍泉冰店",
    "date": "2016-09-16"
  },
  {
    "visit": 5,
    "longitude": 120.22693805104,
    "latitude": 23.002116403526,
    "name": "永林牛肉火鍋 台灣台南美食綜合料理 Tainan, Taiwan Local Delicious food: Yonlin Restaurant",
    "date": "2016-06-16T14:30:01.592Z"
  },
  {
    "visit": 5,
    "longitude": 120.19656153963,
    "latitude": 22.994845396489,
    "name": "Mumu白姆森林（美、義料理）",
    "date": "2016-06-16T14:30:01.592Z"
  },
  {
    "visit": 5,
    "longitude": 120.24409461827,
    "latitude": 22.989786633582,
    "name": "Starbucks星巴克典藏門市-虎尾寮",
    "date": "2016-09-16"
  },
  {
    "visit": 5,
    "longitude": 120.1938015,
    "latitude": 23.0099397,
    "name": "好事多COSTCO",
    "date": "2016-09-16"
  },
  {
    "visit": 5,
    "longitude": 120.21643000519,
    "latitude": 23.000119669706,
    "name": "成大榕園",
    "date": "2016-09-16"
  },
  {
    "visit": 5,
    "longitude": 120.2002396,
    "latitude": 22.99754461,
    "name": "悦津鹹粥",
    "date": "2016-09-16"
  },
  {
    "visit": 5,
    "longitude": 120.16803,
    "latitude": 22.99461,
    "name": "安平秋茂園",
    "date": "2016-09-16"
  },
  {
    "visit": 5,
    "longitude": 120.224,
    "latitude": 22.98093,
    "name": "Oilily Cafe",
    "date": "2016-09-16"
  },
  {
    "visit": 5,
    "longitude": 120.17137860457,
    "latitude": 22.985076631953,
    "name": "台南地方法院檢察署",
    "date": "2016-09-16"
  },
  {
    "visit": 5,
    "longitude": 120.2101593,
    "latitude": 22.9956303,
    "name": "Focus 11F 二鍋(壽喜燒)",
    "date": "2016-06-16T14:30:01.592Z"
  },
  {
    "visit": 5,
    "longitude": 120.20423,
    "latitude": 22.98883,
    "name": "台南愛國婦人會館",
    "date": "2016-09-16"
  },
  {
    "visit": 6,
    "longitude": 120.20813,
    "latitude": 23.0002299,
    "name": "Red Wolf Taven LIVe Music PUB",
    "date": "2016-09-16"
  },
  {
    "visit": 6,
    "longitude": 120.2050849974,
    "latitude": 22.996828678508,
    "name": "美樂蒂中成店VIP包廂",
    "date": "2016-09-16"
  },
  {
    "visit": 6,
    "longitude": 120.19047941665,
    "latitude": 22.9728283,
    "name": "日新國小",
    "date": "2016-09-16"
  },
  {
    "visit": 6,
    "longitude": 120.22109105269,
    "latitude": 22.982336017913,
    "name": "銀座日式料理",
    "date": "2016-06-16T14:30:01.592Z"
  },
  {
    "visit": 6,
    "longitude": 120.20887197922,
    "latitude": 22.996604862795,
    "name": "行政院衛生署台南醫院",
    "date": "2016-09-16"
  },
  {
    "visit": 6,
    "longitude": 120.21215,
    "latitude": 22.98035,
    "name": "栗子咖啡屋",
    "date": "2016-09-16"
  },
  {
    "visit": 6,
    "longitude": 120.1976860957,
    "latitude": 22.993864149254,
    "name": "國華街淺草青春新天地",
    "date": "2016-09-16"
  },
  {
    "visit": 6,
    "longitude": 120.19768239964,
    "latitude": 22.993561897255,
    "name": "邱家傳統小吃小卷米粉",
    "date": "2016-06-16T14:30:01.592Z"
  },
  {
    "visit": 6,
    "longitude": 120.30747,
    "latitude": 23.0378599,
    "name": "楊逵文學紀念館",
    "date": "2016-09-16"
  },
  {
    "visit": 6,
    "longitude": 120.23423126272,
    "latitude": 22.995679232043,
    "name": "金礦咖啡",
    "date": "2016-09-16"
  },
  {
    "visit": 7,
    "longitude": 120.25086971588,
    "latitude": 23.03161715053,
    "name": "台南永康歐洲世界",
    "date": "2016-09-16"
  },
  {
    "visit": 7,
    "longitude": 120.22245633682,
    "latitude": 22.978985465789,
    "name": "爭鮮迴轉壽司崇學店",
    "date": "2016-09-16"
  },
  {
    "visit": 7,
    "longitude": 120.22853,
    "latitude": 23.03277,
    "name": "爭鮮迴轉壽司-中正(家)",
    "date": "2016-09-16"
  },
  {
    "visit": 7,
    "longitude": 120.20750741617,
    "latitude": 22.984047594813,
    "name": "國立台南大學",
    "date": "2016-09-16"
  },
  {
    "visit": 8,
    "longitude": 120.2797001206,
    "latitude": 23.095919773004,
    "name": "聯華電子",
    "date": "2016-09-16"
  },
  {
    "visit": 8,
    "longitude": 120.1534450108,
    "latitude": 23.000111199536,
    "name": "台南四草濕地（台江國家公園）綠色隧道",
    "date": "2016-09-16"
  },
  {
    "visit": 8,
    "longitude": 120.14699658705,
    "latitude": 22.989819453777,
    "name": "安平觀夕平台 Anping Sunset Platform",
    "date": "2016-09-16"
  },
  {
    "visit": 8,
    "longitude": 120.25178685648,
    "latitude": 23.029001937785,
    "name": "聯盈發港式飲茶",
    "date": "2016-09-16"
  },
  {
    "visit": 8,
    "longitude": 120.28123884656,
    "latitude": 23.101277141171,
    "name": "南科總理大餐廳",
    "date": "2016-09-16"
  },
  {
    "visit": 8,
    "longitude": 120.1901943271,
    "latitude": 23.040243567454,
    "name": "同安夜市",
    "date": "2016-09-16"
  },
  {
    "visit": 8,
    "longitude": 120.2178192,
    "latitude": 22.9795609,
    "name": "維達都會生活俱樂部 La Vida Health Club",
    "date": "2016-06-16T14:30:01.592Z"
  },
  {
    "visit": 8,
    "longitude": 120.17174833708,
    "latitude": 23.163830095139,
    "name": "佳里國小",
    "date": "2016-09-16"
  },
  {
    "visit": 8,
    "longitude": 120.20136,
    "latitude": 22.99737,
    "name": "民族路石精臼牛肉湯",
    "date": "2016-09-16"
  },
  {
    "visit": 9,
    "longitude": 120.18620022743,
    "latitude": 22.984485641886,
    "name": "凱渥時尚商務會館",
    "date": "2016-09-16"
  },
  {
    "visit": 9,
    "longitude": 120.22189504437,
    "latitude": 22.978460854064,
    "name": "定食8崇學店",
    "date": "2016-09-16"
  },
  {
    "visit": 9,
    "longitude": 120.21836,
    "latitude": 22.99595,
    "name": "品田牧場 - 台南勝利店",
    "date": "2016-09-16"
  },
  {
    "visit": 9,
    "longitude": 120.20288,
    "latitude": 22.99151,
    "name": "陶阪屋 忠義店",
    "date": "2016-09-16"
  },
  {
    "visit": 9,
    "longitude": 120.19786,
    "latitude": 22.99334,
    "name": "福榮小吃—阿瑞意麵",
    "date": "2016-09-16"
  },
  {
    "visit": 9,
    "longitude": 120.22494,
    "latitude": 23.02999,
    "name": "LEXUS台南所",
    "date": "2016-09-16"
  },
  {
    "visit": 9,
    "longitude": 120.21405833306,
    "latitude": 22.996547619391,
    "name": "台南香格里拉10樓遠東咖啡廳",
    "date": "2016-09-16"
  },
  {
    "visit": 9,
    "longitude": 120.19769,
    "latitude": 22.99334,
    "name": "江水號",
    "date": "2016-06-16T14:30:01.592Z"
  },
  {
    "visit": 9,
    "longitude": 120.19642,
    "latitude": 22.9906599,
    "name": "宏昇KTV",
    "date": "2016-09-16"
  },
  {
    "visit": 9,
    "longitude": 120.1873587747,
    "latitude": 23.008733116034,
    "name": "全家樂釣蝦場",
    "date": "2016-09-16"
  },
  {
    "visit": 10,
    "longitude": 120.21058,
    "latitude": 22.99356,
    "name": "深呼吸運動會館",
    "date": "2016-09-16"
  },
  {
    "visit": 10,
    "longitude": 120.17125893886,
    "latitude": 22.990979544767,
    "name": "星巴克-永華國平",
    "date": "2016-09-16"
  },
  {
    "visit": 10,
    "longitude": 120.22046822125,
    "latitude": 23.001468884115,
    "name": "成功大學成杏廳",
    "date": "2016-09-16"
  },
  {
    "visit": 10,
    "longitude": 120.3077311,
    "latitude": 23.0297293,
    "name": "新化天合釣蝦場",
    "date": "2016-09-16"
  },
  {
    "visit": 10,
    "longitude": 120.17701185589,
    "latitude": 23.161174557172,
    "name": "佳里菜市場",
    "date": "2016-09-16"
  },
  {
    "visit": 10,
    "longitude": 120.21887314804,
    "latitude": 22.982815914296,
    "name": "台南大東夜市❤E.M❤",
    "date": "2016-09-16"
  },
  {
    "visit": 10,
    "longitude": 120.22833,
    "latitude": 22.99349,
    "name": "Domo Pann 多麼胖咖啡東興店",
    "date": "2016-06-16T14:30:01.592Z"
  },
  {
    "visit": 10,
    "longitude": 120.20517827393,
    "latitude": 22.982567423057,
    "name": "懷舊小棧 - 五妃廟口豆腐冰",
    "date": "2016-06-16T14:30:01.592Z"
  },
  {
    "visit": 11,
    "longitude": 120.23667635759,
    "latitude": 23.00903285162,
    "name": "五王國民小學",
    "date": "2016-09-16"
  },
  {
    "visit": 11,
    "longitude": 120.21095,
    "latitude": 22.99473,
    "name": "麻吉的店(複合式餐飲)",
    "date": "2016-09-16"
  },
  {
    "visit": 11,
    "longitude": 120.30165258872,
    "latitude": 23.077691096642,
    "name": "Dartwits Dormitory No.1 Guoji Road Shinsi District Tainan City Taiwan",
    "date": "2016-09-16"
  },
  {
    "visit": 11,
    "longitude": 120.1862869,
    "latitude": 22.9779606,
    "name": "是吉祥火鍋",
    "date": "2016-06-16T14:30:01.592Z"
  },
  {
    "visit": 11,
    "longitude": 120.16354365875,
    "latitude": 22.990438462529,
    "name": "億載國小",
    "date": "2016-09-16"
  },
  {
    "visit": 11,
    "longitude": 120.21000548442,
    "latitude": 22.995785498373,
    "name": "台南Focus~WorldGym世界健身俱樂部",
    "date": "2016-09-16"
  },
  {
    "visit": 11,
    "longitude": 120.20041416376,
    "latitude": 22.994201004548,
    "name": "冰鄉",
    "date": "2016-06-16T14:30:01.592Z"
  },
  {
    "visit": 11,
    "longitude": 120.20710683167,
    "latitude": 22.979134611758,
    "name": "上鶴茶坊",
    "date": "2016-09-16"
  },
  {
    "visit": 11,
    "longitude": 120.18707872014,
    "latitude": 22.982340517677,
    "name": "北京麻辣鴛鴦火鍋",
    "date": "2016-09-16"
  },
  {
    "visit": 11,
    "longitude": 120.23124014952,
    "latitude": 23.008689449674,
    "name": "家樂福 台南中華店",
    "date": "2016-09-16"
  },
  {
    "visit": 11,
    "longitude": 120.18773261116,
    "latitude": 23.007500481868,
    "name": "天成複合式主題館",
    "date": "2016-09-16"
  },
  {
    "visit": 12,
    "longitude": 120.20767115689,
    "latitude": 22.98325435023,
    "name": "台南大學操場",
    "date": "2016-09-16"
  },
  {
    "visit": 12,
    "longitude": 120.23315773008,
    "latitude": 22.990033587109,
    "name": "Momo Paradise 夢時代牧場",
    "date": "2016-09-16"
  },
  {
    "visit": 12,
    "longitude": 120.2331082478,
    "latitude": 22.990812924633,
    "name": "藍屋おいや和風御膳-南紡夢時代",
    "date": "2016-09-16"
  },
  {
    "visit": 12,
    "longitude": 120.2192078,
    "latitude": 23.0021992,
    "name": "成大醫院",
    "date": "2016-06-16T14:30:01.592Z"
  },
  {
    "visit": 13,
    "longitude": 120.2160109703,
    "latitude": 22.985807155289,
    "name": "Kadoya喫茶店",
    "date": "2016-06-16T14:30:01.592Z"
  },
  {
    "visit": 13,
    "longitude": 120.21456,
    "latitude": 22.99382,
    "name": "AJ Burger美式餐廳",
    "date": "2016-06-16T14:30:01.592Z"
  },
  {
    "visit": 14,
    "longitude": 120.23349371124,
    "latitude": 22.9917667582,
    "name": "Bellini Pasta Pasta 台南夢時代店",
    "date": "2016-09-16"
  },
  {
    "visit": 15,
    "longitude": 120.20672319179,
    "latitude": 22.989980046233,
    "name": "竹屋海產火鍋",
    "date": "2016-09-16"
  },
  {
    "visit": 15,
    "longitude": 120.20204,
    "latitude": 22.99692,
    "name": "山根壽司",
    "date": "2016-09-16"
  },
  {
    "visit": 16,
    "longitude": 120.1853837296,
    "latitude": 23.009899057119,
    "name": "台南市旗哥牛肉湯",
    "date": "2016-09-16"
  },
  {
    "visit": 16,
    "longitude": 120.16711,
    "latitude": 22.9977899,
    "name": "安平運河河畔",
    "date": "2016-09-16"
  },
  {
    "visit": 17,
    "longitude": 120.20828191015,
    "latitude": 23.000280946257,
    "name": "紅狼美式酒吧",
    "date": "2016-09-16"
  },
  {
    "visit": 17,
    "longitude": 120.19637416831,
    "latitude": 22.997658165585,
    "name": "神農街",
    "date": "2016-09-16"
  },
  {
    "visit": 17,
    "longitude": 120.22271818023,
    "latitude": 22.974340467603,
    "name": "235巷義大利麵 台南文化店",
    "date": "2016-09-16"
  },
  {
    "visit": 17,
    "longitude": 120.214758,
    "latitude": 22.9937616,
    "name": "黑工號 嫩仙草",
    "date": "2016-06-16T14:30:01.592Z"
  },
  {
    "visit": 18,
    "longitude": 120.1611151,
    "latitude": 23.000049,
    "name": "安平天后宮",
    "date": "2016-09-16"
  },
  {
    "visit": 18,
    "longitude": 120.23401475527,
    "latitude": 22.99588294623,
    "name": "World Gym 國賓店",
    "date": "2016-09-16"
  },
  {
    "visit": 18,
    "longitude": 120.23336128088,
    "latitude": 22.993401503218,
    "name": "Golden Bowling 黃金保齡球場",
    "date": "2016-09-16"
  },
  {
    "visit": 18,
    "longitude": 120.19615299984,
    "latitude": 23.001582749048,
    "name": "Mr.wheat 小麥先生創意料理 - 台南金華店",
    "date": "2016-09-16"
  },
  {
    "visit": 18,
    "longitude": 120.21638888889,
    "latitude": 22.994166666667,
    "name": "National Tainan First Senior High School",
    "date": "2016-09-16"
  },
  {
    "visit": 18,
    "longitude": 120.223688,
    "latitude": 22.980319,
    "name": "薄多義bit2eat義大利麵pizza台南崇學",
    "date": "2016-09-16"
  },
  {
    "visit": 18,
    "longitude": 120.25168441453,
    "latitude": 22.99871999678,
    "name": "異人館咖啡部屋 崑山店",
    "date": "2016-09-16"
  },
  {
    "visit": 19,
    "longitude": 120.21526,
    "latitude": 22.98879,
    "name": "毛丼 丼飯專門店",
    "date": "2016-06-16T14:30:01.592Z"
  },
  {
    "visit": 19,
    "longitude": 120.21793,
    "latitude": 22.9917,
    "name": "波哥茶飲(台南勝利店)",
    "date": "2016-09-16"
  },
  {
    "visit": 19,
    "longitude": 120.16086967485,
    "latitude": 23.000506180217,
    "name": "安平開台天后宮",
    "date": "2016-09-16"
  },
  {
    "visit": 19,
    "longitude": 120.22092777778,
    "latitude": 22.973822222222,
    "name": "德安百貨台南店",
    "date": "2016-09-16"
  },
  {
    "visit": 19,
    "longitude": 120.08332497859,
    "latitude": 23.218327424711,
    "name": "馬沙溝濱海遊憩區",
    "date": "2016-06-16T14:30:01.592Z"
  },
  {
    "visit": 19,
    "longitude": 120.20507,
    "latitude": 22.98997,
    "name": "台南府中街保哥炒泡麵",
    "date": "2016-09-16"
  },
  {
    "visit": 20,
    "longitude": 120.18091,
    "latitude": 22.9895299,
    "name": "吾亦私永華店",
    "date": "2016-09-16"
  },
  {
    "visit": 20,
    "longitude": 120.48197906667,
    "latitude": 22.888082504272,
    "name": "旗山技仔冰城總店",
    "date": "2016-09-16"
  },
  {
    "visit": 20,
    "longitude": 120.29456,
    "latitude": 23.07543,
    "name": "新市區多功能活動中心",
    "date": "2016-09-16"
  },
  {
    "visit": 20,
    "longitude": 120.22155555556,
    "latitude": 22.974833333333,
    "name": "Tainan Municipal Cultural Center",
    "date": "2016-09-16"
  },
  {
    "visit": 21,
    "longitude": 120.18932,
    "latitude": 22.99203,
    "name": "多一點咖啡館-台南美學館-品牌特許授權店",
    "date": "2016-06-16T14:30:01.592Z"
  },
  {
    "visit": 21,
    "longitude": 120.21468602193,
    "latitude": 22.997505891636,
    "name": "國立成功大學光復操場",
    "date": "2016-09-16"
  },
  {
    "visit": 21,
    "longitude": 120.25358891503,
    "latitude": 23.038462654754,
    "name": "永康火車站 Yongkang Station",
    "date": "2016-09-16"
  },
  {
    "visit": 24,
    "longitude": 120.22202,
    "latitude": 23.02062,
    "name": "奇美醫院- Chi Mei Hospital",
    "date": "2016-09-16"
  },
  {
    "visit": 25,
    "longitude": 120.21722757835,
    "latitude": 22.996498061546,
    "name": "國立成功大學",
    "date": "2016-06-16T14:30:01.592Z"
  },
  {
    "visit": 25,
    "longitude": 120.21666666667,
    "latitude": 23,
    "name": "National Cheng Kung University",
    "date": "2016-06-16T14:30:01.592Z"
  },
  {
    "visit": 26,
    "longitude": 120.20801737834,
    "latitude": 22.987952712977,
    "name": "延平郡王祠",
    "date": "2016-09-16"
  },
  {
    "visit": 26,
    "longitude": 120.243656,
    "latitude": 22.926503,
    "name": "奇美博物館",
    "date": "2016-06-16T14:30:01.592Z"
  },
  {
    "visit": 26,
    "longitude": 120.1879653,
    "latitude": 23.0077551,
    "name": "天成複合式釣蝦埸",
    "date": "2016-09-16"
  },
  {
    "visit": 26,
    "longitude": 120.20556460294,
    "latitude": 22.985204217647,
    "name": "Tainan City,taiwan ROC",
    "date": "2016-09-16"
  },
  {
    "visit": 26,
    "longitude": 120.18938,
    "latitude": 22.9973,
    "name": "新臨安橋-台南彩虹橋",
    "date": "2016-09-16"
  },
  {
    "visit": 26,
    "longitude": 120.19726951584,
    "latitude": 22.994355840866,
    "name": "蜷尾家 甘味处。。。散步甜食",
    "date": "2016-06-16T14:30:01.592Z"
  },
  {
    "visit": 27,
    "longitude": 120.16729,
    "latitude": 22.99894,
    "name": "安平古堡",
    "date": "2016-06-16T14:30:01.592Z"
  },
  {
    "visit": 27,
    "longitude": 120.2100688535,
    "latitude": 22.995789099976,
    "name": "Focus時尚流行館",
    "date": "2016-06-16T14:30:01.592Z"
  },
  {
    "visit": 28,
    "longitude": 120.2820996,
    "latitude": 23.09880685,
    "name": "星巴克 - 南科門市",
    "date": "2016-09-16"
  },
  {
    "visit": 30,
    "longitude": 120.1474464754,
    "latitude": 22.997215896129,
    "name": "海之味海產餐廳 - 旗艦店",
    "date": "2016-09-16"
  },
  {
    "visit": 30,
    "longitude": 120.20669,
    "latitude": 23.01232,
    "name": "千喜火鍋館",
    "date": "2016-09-16"
  },
  {
    "visit": 30,
    "longitude": 120.20983574071,
    "latitude": 22.97075290473,
    "name": "台南殯儀館",
    "date": "2016-09-16"
  },
  {
    "visit": 31,
    "longitude": 120.21306038132,
    "latitude": 22.989398637653,
    "name": "Tainan Sin Lau hospital",
    "date": "2016-06-16T14:30:01.592Z"
  },
  {
    "visit": 32,
    "longitude": 120.2389,
    "latitude": 22.98517,
    "name": "異人館（裕平店）",
    "date": "2016-06-16T14:30:01.592Z"
  },
  {
    "visit": 33,
    "longitude": 120.20978819179,
    "latitude": 22.970700860176,
    "name": "臺南市殯葬管理所",
    "date": "2016-09-16"
  },
  {
    "visit": 33,
    "longitude": 120.17490645118,
    "latitude": 22.998079110914,
    "name": "台南安平周式煆捲",
    "date": "2016-09-16"
  },
  {
    "visit": 33,
    "longitude": 120.18658900007,
    "latitude": 22.986884329,
    "name": "輕井澤鍋物 台南店",
    "date": "2016-06-16T14:30:01.592Z"
  },
  {
    "visit": 34,
    "longitude": 120.15976038983,
    "latitude": 23.003754817156,
    "name": "德記洋行&安平樹屋",
    "date": "2016-09-16"
  },
  {
    "visit": 35,
    "longitude": 120.20984411117,
    "latitude": 22.982640796177,
    "name": "東北酸白菜火鍋",
    "date": "2016-09-16"
  },
  {
    "visit": 35,
    "longitude": 120.20450857577,
    "latitude": 22.999208820576,
    "name": "鴨母寮菜市場",
    "date": "2016-09-16"
  },
  {
    "visit": 35,
    "longitude": 120.18560977981,
    "latitude": 22.998099378598,
    "name": "樂禾田 早午餐.日夕食",
    "date": "2016-09-16"
  },
  {
    "visit": 36,
    "longitude": 120.22057687337,
    "latitude": 22.9922225016,
    "name": "韓朝 東寧店",
    "date": "2016-06-16T14:30:01.592Z"
  },
  {
    "visit": 36,
    "longitude": 120.19935552132,
    "latitude": 22.987762026228,
    "name": "Silks Place Tainan 台南晶英酒店",
    "date": "2016-06-16T14:30:01.592Z"
  },
  {
    "visit": 36,
    "longitude": 120.21857,
    "latitude": 22.98422,
    "name": "深藍咖啡館",
    "date": "2016-09-16"
  },
  {
    "visit": 36,
    "longitude": 120.18570852685,
    "latitude": 22.998042744245,
    "name": "台南市安平區運河",
    "date": "2016-09-16"
  },
  {
    "visit": 36,
    "longitude": 120.22672155736,
    "latitude": 22.968563685346,
    "name": "臺南市市立醫院",
    "date": "2016-09-16"
  },
  {
    "visit": 38,
    "longitude": 120.21818488133,
    "latitude": 23.002205663651,
    "name": "台南成大醫院",
    "date": "2016-09-16"
  },
  {
    "visit": 38,
    "longitude": 120.08797711639,
    "latitude": 23.211039753914,
    "name": "馬沙溝將軍魚港",
    "date": "2016-09-16"
  },
  {
    "visit": 40,
    "longitude": 120.20705,
    "latitude": 22.99271,
    "name": "OA Studio",
    "date": "2016-09-16"
  },
  {
    "visit": 40,
    "longitude": 120.20543,
    "latitude": 22.99391,
    "name": "信燒烤",
    "date": "2016-09-16"
  },
  {
    "visit": 40,
    "longitude": 120.2515734194,
    "latitude": 23.03639608295,
    "name": "164 Siwei Street,yongkang District,tainan City,710 Taiwan",
    "date": "2016-09-16"
  },
  {
    "visit": 42,
    "longitude": 120.16894397748,
    "latitude": 22.998947854139,
    "name": "王氏魚皮",
    "date": "2016-09-16"
  },
  {
    "visit": 42,
    "longitude": 120.21429077317,
    "latitude": 22.996495579963,
    "name": "Shangri-La Tainan 香格里拉台南遠東國際大飯店",
    "date": "2016-06-16T14:30:01.592Z"
  },
  {
    "visit": 43,
    "longitude": 120.21445207916,
    "latitude": 22.996932071012,
    "name": "古拉爵_台南遠百成功店",
    "date": "2016-09-16"
  },
  {
    "visit": 43,
    "longitude": 120.21281128346,
    "latitude": 22.996978888208,
    "name": "台南火車站",
    "date": "2016-06-16T14:30:01.592Z"
  },
  {
    "visit": 44,
    "longitude": 120.22631,
    "latitude": 22.99154,
    "name": "上海好味道小籠湯包",
    "date": "2016-09-16"
  },
  {
    "visit": 45,
    "longitude": 120.17856763435,
    "latitude": 23.158738286313,
    "name": "佳里丹丹漢堡",
    "date": "2016-09-16"
  },
  {
    "visit": 46,
    "longitude": 120.21253823351,
    "latitude": 22.99895734514,
    "name": "統聯客運 北門站",
    "date": "2016-09-16"
  },
  {
    "visit": 47,
    "longitude": 120.22346,
    "latitude": 22.98032,
    "name": "薄多義崇學店",
    "date": "2016-09-16"
  },
  {
    "visit": 47,
    "longitude": 120.26278417842,
    "latitude": 23.018926752813,
    "name": "永大夜巿",
    "date": "2016-09-16"
  },
  {
    "visit": 51,
    "longitude": 120.2619934,
    "latitude": 23.0194092,
    "name": "東東宴會式場永大幸福館",
    "date": "2016-09-16"
  },
  {
    "visit": 52,
    "longitude": 120.1680442,
    "latitude": 22.9865629,
    "name": "In STYLE hair studio",
    "date": "2016-06-16T14:30:01.592Z"
  },
  {
    "visit": 53,
    "longitude": 120.20981575793,
    "latitude": 22.995100521131,
    "name": "新光三越 台南中山店",
    "date": "2016-06-16T14:30:01.592Z"
  },
  {
    "visit": 55,
    "longitude": 120.24263749071,
    "latitude": 23.043689602214,
    "name": "桂田酒店－阿力海百匯自助餐廳",
    "date": "2016-09-16"
  },
  {
    "visit": 57,
    "longitude": 120.0880797534,
    "latitude": 23.210773428785,
    "name": "將軍漁港",
    "date": "2016-09-16"
  },
  {
    "visit": 61,
    "longitude": 120.29351,
    "latitude": 23.07919,
    "name": "新市",
    "date": "2016-09-16"
  },
  {
    "visit": 61,
    "longitude": 120.20722222222,
    "latitude": 22.983888888889,
    "name": "National University of Tainan",
    "date": "2016-09-16"
  },
  {
    "visit": 64,
    "longitude": 120.25833909,
    "latitude": 23.03247518,
    "name": "永康 龍潭",
    "date": "2016-09-16"
  },
  {
    "visit": 65,
    "longitude": 120.21382708233,
    "latitude": 23.003583742246,
    "name": "刺客炭火燒肉",
    "date": "2016-09-16"
  },
  {
    "visit": 68,
    "longitude": 120.1978,
    "latitude": 22.9868099,
    "name": "新光影城",
    "date": "2016-09-16"
  },
  {
    "visit": 69,
    "longitude": 120.20519782594,
    "latitude": 22.99010517545,
    "name": "孔廟老街",
    "date": "2016-09-16"
  },
  {
    "visit": 70,
    "longitude": 120.1986886,
    "latitude": 22.9882905,
    "name": "台南晶英酒店",
    "date": "2016-09-16"
  },
  {
    "visit": 70,
    "longitude": 120.19676882194,
    "latitude": 22.997497336567,
    "name": "台南市神農街",
    "date": "2016-09-16"
  },
  {
    "visit": 70,
    "longitude": 120.19995,
    "latitude": 22.9989,
    "name": "開基共善堂",
    "date": "2016-09-16"
  },
  {
    "visit": 72,
    "longitude": 120.48392960005,
    "latitude": 22.88294067157,
    "name": "旗山",
    "date": "2016-09-16"
  },
  {
    "visit": 76,
    "longitude": 120.22841,
    "latitude": 22.98018,
    "name": "婦兒安婦幼中心",
    "date": "2016-09-16"
  },
  {
    "visit": 77,
    "longitude": 120.19581145527,
    "latitude": 22.996994474522,
    "name": "台南西羅殿廣澤尊王",
    "date": "2016-09-16"
  },
  {
    "visit": 82,
    "longitude": 120.19724200369,
    "latitude": 22.992639866802,
    "name": "台南國華商圈",
    "date": "2016-09-16"
  },
  {
    "visit": 85,
    "longitude": 120.19913996231,
    "latitude": 23.045362014124,
    "name": "台南市果菜批發市場",
    "date": "2016-09-16"
  },
  {
    "visit": 86,
    "longitude": 120.3077,
    "latitude": 23.0345,
    "name": "台南-新化老街",
    "date": "2016-09-16"
  },
  {
    "visit": 88,
    "longitude": 120.24122803658,
    "latitude": 23.184890240688,
    "name": "台南麻豆碗粿蘭",
    "date": "2016-09-16"
  },
  {
    "visit": 89,
    "longitude": 120.21543509477,
    "latitude": 23.040711711082,
    "name": "大安順ktv",
    "date": "2016-09-16"
  },
  {
    "visit": 99,
    "longitude": 120.19863961208,
    "latitude": 22.987050210035,
    "name": "新光三越 台南西門店",
    "date": "2016-06-16T14:30:01.592Z"
  },
  {
    "visit": 100,
    "longitude": 120.19858368,
    "latitude": 22.98767847,
    "name": "稻禾烏龍麵inaka-台南新光三越小西門店",
    "date": "2016-06-16T14:30:01.592Z"
  },
  {
    "visit": 104,
    "longitude": 120.19733,
    "latitude": 22.99435,
    "name": "正興街",
    "date": "2016-09-16"
  },
  {
    "visit": 105,
    "longitude": 120.14776580047,
    "latitude": 22.992089716739,
    "name": "安平國際遊艇碼頭",
    "date": "2016-09-16"
  },
  {
    "visit": 108,
    "longitude": 120.16485277778,
    "latitude": 22.993477777778,
    "name": "Anping District",
    "date": "2016-09-16"
  },
  {
    "visit": 114,
    "longitude": 120.23120798324,
    "latitude": 22.989133118867,
    "name": "老四川巴蜀麻辣燙-台南東寧店",
    "date": "2016-09-16"
  },
  {
    "visit": 122,
    "longitude": 120.19793,
    "latitude": 22.98777,
    "name": "Tayih Landis Hotel Tainan 台南大億麗緻酒店",
    "date": "2016-06-16T14:30:01.592Z"
  },
  {
    "visit": 122,
    "longitude": 120.19821037581,
    "latitude": 22.98739150113,
    "name": "台南新光三越新天地-新光影城",
    "date": "2016-09-16"
  },
  {
    "visit": 128,
    "longitude": 120.18382,
    "latitude": 22.99347,
    "name": "碳佐麻里 -府前店",
    "date": "2016-09-16"
  },
  {
    "visit": 132,
    "longitude": 120.20618754185,
    "latitude": 22.995549850652,
    "name": "台南大遠百-華納威秀",
    "date": "2016-09-16"
  },
  {
    "visit": 133,
    "longitude": 120.22749,
    "latitude": 23.01801,
    "name": "碳佐麻里燒肉和食-永康中華店",
    "date": "2016-09-16"
  },
  {
    "visit": 158,
    "longitude": 120.1876511,
    "latitude": 22.9890909,
    "name": "Omaya春川炒雞台南永華店",
    "date": "2016-06-16T14:30:01.592Z"
  },
  {
    "visit": 162,
    "longitude": 120.23293733967,
    "latitude": 22.99103966379,
    "name": "\"台南南紡\"夢時代購物中心",
    "date": "2016-06-16T14:30:01.592Z"
  },
  {
    "visit": 168,
    "longitude": 120.2661,
    "latitude": 23.0133,
    "name": "台南市永康區大灣",
    "date": "2016-09-16"
  },
  {
    "visit": 171,
    "longitude": 120.19721899186,
    "latitude": 22.986983811672,
    "name": "藍晒圖文創園區",
    "date": "2016-09-16"
  },
  {
    "visit": 206,
    "longitude": 120.19343913971,
    "latitude": 23.010363926672,
    "name": "Costco 台南店",
    "date": "2016-09-16"
  },
  {
    "visit": 213,
    "longitude": 120.22554715615,
    "latitude": 22.934710000308,
    "name": "台南白宮～奇美博物館",
    "date": "2016-09-16"
  },
  {
    "visit": 277,
    "longitude": 120.15774199652,
    "latitude": 22.994065245015,
    "name": "林默娘公園",
    "date": "2016-09-16"
  },
  {
    "visit": 352,
    "longitude": 120.161134,
    "latitude": 23.003993,
    "name": "臺南安平老街",
    "date": "2016-09-16"
  },
  {
    "visit": 356,
    "longitude": 120.24806508478,
    "latitude": 23.183110966778,
    "name": "台南巿麻豆區",
    "date": "2016-09-16"
  },
  {
    "visit": 357,
    "longitude": 120.23400289792,
    "latitude": 22.996153333333,
    "name": "台南 國賓影城",
    "date": "2016-09-16"
  },
  {
    "visit": 364,
    "longitude": 120.21880026234,
    "latitude": 22.982623470927,
    "name": "大東夜市",
    "date": "2016-09-16"
  },
  {
    "visit": 456,
    "longitude": 120.212917769,
    "latitude": 22.99704129708,
    "name": "臺南火車站 Tainan Train Station",
    "date": "2016-09-16"
  },
  {
    "visit": 863,
    "longitude": 120.16080528271,
    "latitude": 23.001228038111,
    "name": "台南市安平古堡&老街",
    "date": "2016-09-16"
  },
  {
    "visit": 2464,
    "longitude": 120.14690225407,
    "latitude": 22.990450444499,
    "name": "安平觀汐平台",
    "date": "2016-09-16"
  }
]