[
  {
    "visit": 1,
    "longitude": 120.26184699061,
    "latitude": 23.18648820243,
    "name": "麻豆無名乾麵",
    "date": "2016-06-10T14:30:01.760Z"
  },
  {
    "visit": 1,
    "longitude": 120.18938,
    "latitude": 22.9973,
    "name": "新臨安橋-台南彩虹橋",
    "date": "2016-06-10T14:30:01.760Z"
  },
  {
    "visit": 1,
    "longitude": 120.22650837005,
    "latitude": 23.031447811711,
    "name": "HONDA永康店",
    "date": "2016-06-10T14:30:01.760Z"
  },
  {
    "visit": 1,
    "longitude": 120.18668,
    "latitude": 23.00243,
    "name": "宜得利家居",
    "date": "2016-06-10T14:30:01.760Z"
  },
  {
    "visit": 1,
    "longitude": 120.23336128088,
    "latitude": 22.993401503218,
    "name": "Golden Bowling 黃金保齡球場",
    "date": "2016-06-10T14:30:01.760Z"
  },
  {
    "visit": 1,
    "longitude": 120.23090398336,
    "latitude": 23.082722585221,
    "name": "中山高速公路國道8號-台南支線",
    "date": "2016-06-10T14:30:01.760Z"
  },
  {
    "visit": 1,
    "longitude": 120.2020721,
    "latitude": 23.0013294,
    "name": "立人國小",
    "date": "2016-06-10T14:30:01.760Z"
  },
  {
    "visit": 1,
    "longitude": 120.19152027,
    "latitude": 22.981854910916,
    "name": "85度c咖啡蛋糕烘焙專賣店",
    "date": "2016-06-10T14:30:01.760Z"
  },
  {
    "visit": 1,
    "longitude": 120.22294,
    "latitude": 23.00301,
    "name": "魚羊鮮豆咖啡館",
    "date": "2016-06-10T14:30:01.760Z"
  },
  {
    "visit": 1,
    "longitude": 120.21023103481,
    "latitude": 22.995738523998,
    "name": "Focus 綠蓋茶•館",
    "date": "2016-06-10T14:30:01.760Z"
  },
  {
    "visit": 1,
    "longitude": 120.16803,
    "latitude": 22.99461,
    "name": "安平秋茂園",
    "date": "2016-06-10T14:30:01.760Z"
  },
  {
    "visit": 1,
    "longitude": 120.17066812002,
    "latitude": 22.992465802282,
    "name": "台南市立滑輪溜冰場",
    "date": "2016-06-10T14:30:01.760Z"
  },
  {
    "visit": 1,
    "longitude": 120.1978,
    "latitude": 22.9868099,
    "name": "台南響食天堂",
    "date": "2016-06-10T14:30:01.760Z"
  },
  {
    "visit": 1,
    "longitude": 120.16819972336,
    "latitude": 22.994654958473,
    "name": "台南市安平圖書館",
    "date": "2016-06-10T14:30:01.760Z"
  },
  {
    "visit": 1,
    "longitude": 120.22760205909,
    "latitude": 22.968558342231,
    "name": "崇文里暨崇成里聯合活動中心",
    "date": "2016-06-10T14:30:01.760Z"
  },
  {
    "visit": 1,
    "longitude": 120.22966,
    "latitude": 22.99005,
    "name": "新都巷日本料理",
    "date": "2016-06-10T14:30:01.760Z"
  },
  {
    "visit": 2,
    "longitude": 120.2075155,
    "latitude": 22.9857107,
    "name": "台南大學",
    "date": "2016-06-10T14:30:01.760Z"
  },
  {
    "visit": 2,
    "longitude": 120.22614,
    "latitude": 22.99212,
    "name": "九分十刻西式新料理",
    "date": "2016-06-10T14:30:01.760Z"
  },
  {
    "visit": 2,
    "longitude": 120.1611151,
    "latitude": 23.000049,
    "name": "安平天后宮",
    "date": "2016-06-10T14:30:01.760Z"
  },
  {
    "visit": 2,
    "longitude": 120.22494,
    "latitude": 23.02999,
    "name": "LEXUS台南所",
    "date": "2016-06-10T14:30:01.760Z"
  },
  {
    "visit": 2,
    "longitude": 120.18655181945,
    "latitude": 22.986777392356,
    "name": "輕井澤【鍋の物】台南店",
    "date": "2016-06-10T14:30:01.760Z"
  },
  {
    "visit": 2,
    "longitude": 120.17913393594,
    "latitude": 22.997524545472,
    "name": "南山人壽台南分公司",
    "date": "2016-06-10T14:30:01.760Z"
  },
  {
    "visit": 2,
    "longitude": 120.21881,
    "latitude": 22.97964,
    "name": "Malibu泰式料理餐廳",
    "date": "2016-06-10T14:30:01.760Z"
  },
  {
    "visit": 2,
    "longitude": 120.26278417842,
    "latitude": 23.018926752813,
    "name": "永大夜巿",
    "date": "2016-06-10T14:30:01.760Z"
  },
  {
    "visit": 2,
    "longitude": 120.22101,
    "latitude": 22.9951,
    "name": "Noah's ark 諾亞方舟主廚餐廳",
    "date": "2016-06-10T14:30:01.760Z"
  },
  {
    "visit": 2,
    "longitude": 120.19656153963,
    "latitude": 22.994845396489,
    "name": "Mumu白姆森林（美、義料理）",
    "date": "2016-06-10T14:30:01.760Z"
  },
  {
    "visit": 2,
    "longitude": 120.21469788285,
    "latitude": 22.996140271894,
    "name": "香格里拉飯店B2F遠東宴會廳",
    "date": "2016-06-10T14:30:01.760Z"
  },
  {
    "visit": 2,
    "longitude": 120.2050849974,
    "latitude": 22.996828678508,
    "name": "美樂蒂中成店VIP包廂",
    "date": "2016-06-10T14:30:01.760Z"
  },
  {
    "visit": 2,
    "longitude": 120.21048833164,
    "latitude": 22.995917576717,
    "name": "CUCINA佐佐義",
    "date": "2016-06-10T14:30:01.760Z"
  },
  {
    "visit": 2,
    "longitude": 120.22107832478,
    "latitude": 23.024788077567,
    "name": "Golden Brother's Dormit0ry",
    "date": "2016-06-10T14:30:01.760Z"
  },
  {
    "visit": 2,
    "longitude": 120.20978819179,
    "latitude": 22.970700860176,
    "name": "臺南市殯葬管理所",
    "date": "2016-06-10T14:30:01.760Z"
  },
  {
    "visit": 2,
    "longitude": 120.22317,
    "latitude": 22.98084,
    "name": "準媽媽婦嬰用品專賣店(直營系統)",
    "date": "2016-06-10T14:30:01.760Z"
  },
  {
    "visit": 2,
    "longitude": 120.21758726512,
    "latitude": 22.996685621924,
    "name": "成功大學-中正堂",
    "date": "2016-06-10T14:30:01.760Z"
  },
  {
    "visit": 2,
    "longitude": 120.2002396,
    "latitude": 22.99754461,
    "name": "悦津鹹粥",
    "date": "2016-06-10T14:30:01.760Z"
  },
  {
    "visit": 3,
    "longitude": 120.20330585737,
    "latitude": 22.99017825645,
    "name": "台南市立忠義國小",
    "date": "2016-06-10T14:30:01.760Z"
  },
  {
    "visit": 3,
    "longitude": 120.20962796203,
    "latitude": 22.994846496922,
    "name": "Dazzling蜜糖吐司",
    "date": "2016-06-10T14:30:01.760Z"
  },
  {
    "visit": 3,
    "longitude": 120.21256276667,
    "latitude": 22.97992713496,
    "name": "大山牛排",
    "date": "2016-06-10T14:30:01.760Z"
  },
  {
    "visit": 3,
    "longitude": 120.22276917184,
    "latitude": 23.024579240326,
    "name": "南台科技大學星巴克",
    "date": "2016-06-10T14:30:01.760Z"
  },
  {
    "visit": 3,
    "longitude": 120.20788,
    "latitude": 22.99776,
    "name": "好樂迪ktv",
    "date": "2016-06-10T14:30:01.760Z"
  },
  {
    "visit": 3,
    "longitude": 120.20546,
    "latitude": 22.98454,
    "name": "波哥三店（南寧街）",
    "date": "2016-06-10T14:30:01.760Z"
  },
  {
    "visit": 3,
    "longitude": 120.20767115689,
    "latitude": 22.98325435023,
    "name": "台南大學操場",
    "date": "2016-06-10T14:30:01.760Z"
  },
  {
    "visit": 3,
    "longitude": 120.2072,
    "latitude": 22.98107,
    "name": "府城體育公園杏仁豆腐冰",
    "date": "2016-06-10T14:30:01.760Z"
  },
  {
    "visit": 3,
    "longitude": 120.22853,
    "latitude": 23.03277,
    "name": "家樂福",
    "date": "2016-06-10T14:30:01.760Z"
  },
  {
    "visit": 4,
    "longitude": 120.228,
    "latitude": 22.98987,
    "name": "俗俗賣芒果牛奶冰",
    "date": "2016-06-10T14:30:01.760Z"
  },
  {
    "visit": 4,
    "longitude": 120.2178192,
    "latitude": 22.9795609,
    "name": "維達都會生活俱樂部 La Vida Health Club",
    "date": "2016-06-10T14:30:01.760Z"
  },
  {
    "visit": 4,
    "longitude": 120.19841,
    "latitude": 22.99398,
    "name": "JJ-W Hotel",
    "date": "2016-06-10T14:30:01.760Z"
  },
  {
    "visit": 4,
    "longitude": 120.22185559466,
    "latitude": 22.989340099854,
    "name": "私立長榮高級中學 Chang Jung Senior High School",
    "date": "2016-06-10T14:30:01.760Z"
  },
  {
    "visit": 4,
    "longitude": 120.19568,
    "latitude": 22.99061,
    "name": "南廠保安宮",
    "date": "2016-06-10T14:30:01.760Z"
  },
  {
    "visit": 4,
    "longitude": 120.2041,
    "latitude": 22.99374,
    "name": "台灣首廟天壇天公廟",
    "date": "2016-06-10T14:30:01.760Z"
  },
  {
    "visit": 4,
    "longitude": 120.14699658705,
    "latitude": 22.989819453777,
    "name": "安平觀夕平台 Anping Sunset Platform",
    "date": "2016-06-10T14:30:01.760Z"
  },
  {
    "visit": 4,
    "longitude": 120.23667635759,
    "latitude": 23.00903285162,
    "name": "五王國民小學",
    "date": "2016-06-10T14:30:01.760Z"
  },
  {
    "visit": 4,
    "longitude": 120.22130284575,
    "latitude": 22.979366799069,
    "name": "天主教德光中學",
    "date": "2016-06-10T14:30:01.760Z"
  },
  {
    "visit": 4,
    "longitude": 120.22279,
    "latitude": 22.97962,
    "name": "加州廚房",
    "date": "2016-06-10T14:30:01.760Z"
  },
  {
    "visit": 4,
    "longitude": 120.19876017363,
    "latitude": 22.986752747775,
    "name": "台南新光三越西門店花月嵐拉麵",
    "date": "2016-06-10T14:30:01.760Z"
  },
  {
    "visit": 5,
    "longitude": 120.22675735848,
    "latitude": 22.969023773846,
    "name": "台南市立醫院急診室",
    "date": "2016-06-10T14:30:01.760Z"
  },
  {
    "visit": 5,
    "longitude": 120.20207,
    "latitude": 22.99106,
    "name": "花川日式料理",
    "date": "2016-06-10T14:30:01.760Z"
  },
  {
    "visit": 5,
    "longitude": 120.20580013497,
    "latitude": 22.980733233594,
    "name": "台南市立棒球場",
    "date": "2016-06-10T14:30:01.760Z"
  },
  {
    "visit": 5,
    "longitude": 120.24875949521,
    "latitude": 23.183102712113,
    "name": "來來KTV",
    "date": "2016-06-10T14:30:01.760Z"
  },
  {
    "visit": 5,
    "longitude": 120.21215,
    "latitude": 22.98035,
    "name": "栗子咖啡屋",
    "date": "2016-06-10T14:30:01.760Z"
  },
  {
    "visit": 5,
    "longitude": 120.22100732643,
    "latitude": 22.990755954617,
    "name": "飛饗創意西式料理-旗艦總店",
    "date": "2016-06-10T14:30:01.760Z"
  },
  {
    "visit": 5,
    "longitude": 120.21200062511,
    "latitude": 22.99715067333,
    "name": "臺南火車站",
    "date": "2016-06-10T14:30:01.760Z"
  },
  {
    "visit": 5,
    "longitude": 120.20710683167,
    "latitude": 22.979134611758,
    "name": "上鶴茶坊",
    "date": "2016-06-10T14:30:01.760Z"
  },
  {
    "visit": 5,
    "longitude": 120.21331,
    "latitude": 22.9945099,
    "name": "府城騷烤家",
    "date": "2016-06-10T14:30:01.760Z"
  },
  {
    "visit": 5,
    "longitude": 120.21150978657,
    "latitude": 22.989533475104,
    "name": "Map北門形象館",
    "date": "2016-06-10T14:30:01.760Z"
  },
  {
    "visit": 5,
    "longitude": 120.21052887689,
    "latitude": 22.994172996672,
    "name": "萬昌起義",
    "date": "2016-06-10T14:30:01.760Z"
  },
  {
    "visit": 5,
    "longitude": 120.25916511387,
    "latitude": 23.0367765012,
    "name": "森品複合式餐飲店",
    "date": "2016-06-10T14:30:01.760Z"
  },
  {
    "visit": 5,
    "longitude": 120.20994534264,
    "latitude": 22.99571851868,
    "name": "Focus百貨WorldGym",
    "date": "2016-06-10T14:30:01.760Z"
  },
  {
    "visit": 5,
    "longitude": 120.23419761569,
    "latitude": 22.995175816549,
    "name": "王品台塑牛排台南中華東店",
    "date": "2016-06-10T14:30:01.760Z"
  },
  {
    "visit": 6,
    "longitude": 120.235154067,
    "latitude": 23.003941326251,
    "name": "爭鮮迴轉寿司 Sushi Express 中華店",
    "date": "2016-06-10T14:30:01.760Z"
  },
  {
    "visit": 6,
    "longitude": 120.18272543922,
    "latitude": 22.98957672629,
    "name": "佛光山南台別院",
    "date": "2016-06-10T14:30:01.760Z"
  },
  {
    "visit": 6,
    "longitude": 120.22862,
    "latitude": 22.98999,
    "name": "萬客樓",
    "date": "2016-06-10T14:30:01.760Z"
  },
  {
    "visit": 6,
    "longitude": 120.19497012363,
    "latitude": 22.986138981812,
    "name": "夏林海鮮碳烤",
    "date": "2016-06-10T14:30:01.760Z"
  },
  {
    "visit": 6,
    "longitude": 120.17639601102,
    "latitude": 22.994800056633,
    "name": "安平國小",
    "date": "2016-06-10T14:30:01.760Z"
  },
  {
    "visit": 6,
    "longitude": 120.20185243656,
    "latitude": 23.00317416798,
    "name": "夏幕尼香榭鐵板燒",
    "date": "2016-06-10T14:30:01.760Z"
  },
  {
    "visit": 6,
    "longitude": 120.2661,
    "latitude": 23.0133,
    "name": "台南市永康區大灣",
    "date": "2016-06-10T14:30:01.760Z"
  },
  {
    "visit": 6,
    "longitude": 120.20817,
    "latitude": 22.99473,
    "name": "Donutes台南店",
    "date": "2016-06-10T14:30:01.760Z"
  },
  {
    "visit": 6,
    "longitude": 120.20562,
    "latitude": 22.98345,
    "name": "波哥3店",
    "date": "2016-06-10T14:30:01.760Z"
  },
  {
    "visit": 7,
    "longitude": 120.29456,
    "latitude": 23.07543,
    "name": "新市區多功能活動中心",
    "date": "2016-06-10T14:30:01.760Z"
  },
  {
    "visit": 7,
    "longitude": 120.18755435944,
    "latitude": 22.989054217213,
    "name": "石頭燒肉（永華館）",
    "date": "2016-06-10T14:30:01.760Z"
  },
  {
    "visit": 7,
    "longitude": 120.48119425994,
    "latitude": 22.8877135449,
    "name": "旗山體育場",
    "date": "2016-06-10T14:30:01.760Z"
  },
  {
    "visit": 7,
    "longitude": 120.22355826271,
    "latitude": 22.999363759867,
    "name": "成大自強校區",
    "date": "2016-06-10T14:30:01.760Z"
  },
  {
    "visit": 7,
    "longitude": 120.19499780736,
    "latitude": 22.985589537213,
    "name": "牽手海產攤",
    "date": "2016-06-10T14:30:01.760Z"
  },
  {
    "visit": 7,
    "longitude": 120.20431,
    "latitude": 22.98574,
    "name": "迦南水果店",
    "date": "2016-06-10T14:30:01.760Z"
  },
  {
    "visit": 7,
    "longitude": 120.224,
    "latitude": 22.98093,
    "name": "Oilily Cafe",
    "date": "2016-06-10T14:30:01.760Z"
  },
  {
    "visit": 7,
    "longitude": 120.20538,
    "latitude": 22.99803,
    "name": "異人館-成功店",
    "date": "2016-06-10T14:30:01.760Z"
  },
  {
    "visit": 7,
    "longitude": 120.26107,
    "latitude": 23.01991,
    "name": "大成釣蝦",
    "date": "2016-06-10T14:30:01.760Z"
  },
  {
    "visit": 8,
    "longitude": 120.20519782594,
    "latitude": 22.99010517545,
    "name": "孔廟老街",
    "date": "2016-06-10T14:30:01.760Z"
  },
  {
    "visit": 8,
    "longitude": 120.21887314804,
    "latitude": 22.982815914296,
    "name": "台南大東夜市❤E.M❤",
    "date": "2016-06-10T14:30:01.760Z"
  },
  {
    "visit": 8,
    "longitude": 120.26259,
    "latitude": 23.18945,
    "name": "曾文農工",
    "date": "2016-06-10T14:30:01.760Z"
  },
  {
    "visit": 8,
    "longitude": 120.186338,
    "latitude": 22.9854133,
    "name": "台南南區",
    "date": "2016-06-10T14:30:01.760Z"
  },
  {
    "visit": 8,
    "longitude": 120.17461,
    "latitude": 22.99818,
    "name": "台南周氏蝦捲總店",
    "date": "2016-06-10T14:30:01.760Z"
  },
  {
    "visit": 8,
    "longitude": 120.2820996,
    "latitude": 23.09880685,
    "name": "星巴克 - 南科門市",
    "date": "2016-06-10T14:30:01.760Z"
  },
  {
    "visit": 8,
    "longitude": 120.1955531698,
    "latitude": 23.009940715039,
    "name": "彩虹日本料理和緯店",
    "date": "2016-06-10T14:30:01.760Z"
  },
  {
    "visit": 8,
    "longitude": 120.14722428973,
    "latitude": 22.990223774206,
    "name": "觀汐平臺",
    "date": "2016-06-10T14:30:01.760Z"
  },
  {
    "visit": 8,
    "longitude": 120.2419,
    "latitude": 22.9868099,
    "name": "忠味麵店",
    "date": "2016-06-10T14:30:01.760Z"
  },
  {
    "visit": 8,
    "longitude": 120.20392,
    "latitude": 22.98582,
    "name": "小荳荳鍋燒意麵",
    "date": "2016-06-10T14:30:01.760Z"
  },
  {
    "visit": 9,
    "longitude": 120.22109105269,
    "latitude": 22.982336017913,
    "name": "銀座日式料理",
    "date": "2016-06-10T14:30:01.760Z"
  },
  {
    "visit": 9,
    "longitude": 120.22571941866,
    "latitude": 23.006471724229,
    "name": "南園街鍋貼",
    "date": "2016-06-10T14:30:01.760Z"
  },
  {
    "visit": 9,
    "longitude": 120.19763413239,
    "latitude": 22.993611368859,
    "name": "Chiuanhouse",
    "date": "2016-06-10T14:30:01.760Z"
  },
  {
    "visit": 9,
    "longitude": 120.21846061554,
    "latitude": 22.995345825567,
    "name": "鬥牛士二鍋成大店",
    "date": "2016-06-10T14:30:01.760Z"
  },
  {
    "visit": 10,
    "longitude": 120.20790586704,
    "latitude": 22.990283538178,
    "name": "順風號",
    "date": "2016-06-10T14:30:01.760Z"
  },
  {
    "visit": 10,
    "longitude": 120.1534450108,
    "latitude": 23.000111199536,
    "name": "台南四草濕地（台江國家公園）綠色隧道",
    "date": "2016-06-10T14:30:01.760Z"
  },
  {
    "visit": 10,
    "longitude": 120.18620022743,
    "latitude": 22.984485641886,
    "name": "凱渥時尚商務會館",
    "date": "2016-06-10T14:30:01.760Z"
  },
  {
    "visit": 10,
    "longitude": 120.21095,
    "latitude": 22.99473,
    "name": "麻吉的店(複合式餐飲)",
    "date": "2016-06-10T14:30:01.760Z"
  },
  {
    "visit": 10,
    "longitude": 120.15338,
    "latitude": 22.99991,
    "name": "安平豆花☆",
    "date": "2016-06-10T14:30:01.760Z"
  },
  {
    "visit": 10,
    "longitude": 120.20672319179,
    "latitude": 22.989980046233,
    "name": "竹屋海產火鍋",
    "date": "2016-06-10T14:30:01.760Z"
  },
  {
    "visit": 11,
    "longitude": 120.22685895897,
    "latitude": 22.998394782262,
    "name": "夫妻肺片-台南東和店",
    "date": "2016-06-10T14:30:01.760Z"
  },
  {
    "visit": 11,
    "longitude": 120.17125893886,
    "latitude": 22.990979544767,
    "name": "星巴克-永華國平",
    "date": "2016-06-10T14:30:01.760Z"
  },
  {
    "visit": 11,
    "longitude": 120.21836,
    "latitude": 22.99595,
    "name": "品田牧場 - 台南勝利店",
    "date": "2016-06-10T14:30:01.760Z"
  },
  {
    "visit": 11,
    "longitude": 120.29257802436,
    "latitude": 23.128567734273,
    "name": "Mcdonald's麥當勞善化店",
    "date": "2016-06-10T14:30:01.760Z"
  },
  {
    "visit": 11,
    "longitude": 120.24905343722,
    "latitude": 23.18532065,
    "name": "麻豆菜市場",
    "date": "2016-06-10T14:30:01.760Z"
  },
  {
    "visit": 12,
    "longitude": 120.20041416376,
    "latitude": 22.994201004548,
    "name": "冰鄉",
    "date": "2016-06-10T14:30:01.760Z"
  },
  {
    "visit": 12,
    "longitude": 120.20127,
    "latitude": 23.00955,
    "name": "席瑪朵珈琲烘焙棧 Cermado cafe",
    "date": "2016-06-10T14:30:01.760Z"
  },
  {
    "visit": 12,
    "longitude": 120.18360389376,
    "latitude": 22.992389479062,
    "name": "台南市政府西側廣場",
    "date": "2016-06-10T14:30:01.760Z"
  },
  {
    "visit": 12,
    "longitude": 120.20493,
    "latitude": 22.98466,
    "name": "I - Mita 愛米塔。早午餐。輕食。蜜塔。",
    "date": "2016-06-10T14:30:01.760Z"
  },
  {
    "visit": 13,
    "longitude": 120.2217,
    "latitude": 22.97604,
    "name": "三皇三家崇明店",
    "date": "2016-06-10T14:30:01.760Z"
  },
  {
    "visit": 13,
    "longitude": 120.19949022102,
    "latitude": 22.995107637143,
    "name": "花見宇治抹茶甘味処",
    "date": "2016-06-10T14:30:01.760Z"
  },
  {
    "visit": 13,
    "longitude": 120.17490645118,
    "latitude": 22.998079110914,
    "name": "台南安平周式煆捲",
    "date": "2016-06-10T14:30:01.760Z"
  },
  {
    "visit": 13,
    "longitude": 120.22833,
    "latitude": 22.99349,
    "name": "Domo Pann 多麼胖咖啡東興店",
    "date": "2016-06-10T14:30:01.760Z"
  },
  {
    "visit": 13,
    "longitude": 120.22123,
    "latitude": 22.9956299,
    "name": "KAFFE at HOME",
    "date": "2016-06-10T14:30:01.760Z"
  },
  {
    "visit": 14,
    "longitude": 120.30165258872,
    "latitude": 23.077691096642,
    "name": "Dartwits Dormitory No.1 Guoji Road Shinsi District Tainan City Taiwan",
    "date": "2016-06-10T14:30:01.760Z"
  },
  {
    "visit": 14,
    "longitude": 120.24338,
    "latitude": 22.98633,
    "name": "關聖里活動中心",
    "date": "2016-06-10T14:30:01.760Z"
  },
  {
    "visit": 14,
    "longitude": 120.23124014952,
    "latitude": 23.008689449674,
    "name": "家樂福 台南中華店",
    "date": "2016-06-10T14:30:01.760Z"
  },
  {
    "visit": 14,
    "longitude": 120.22918,
    "latitude": 23.0002299,
    "name": "台南極鮮火鍋",
    "date": "2016-06-10T14:30:01.760Z"
  },
  {
    "visit": 14,
    "longitude": 120.21083,
    "latitude": 22.99715,
    "name": "台南大飯店 Hotel Tainan",
    "date": "2016-06-10T14:30:01.760Z"
  },
  {
    "visit": 14,
    "longitude": 120.19780200611,
    "latitude": 22.988245991803,
    "name": "台南西門錢櫃KTV",
    "date": "2016-06-10T14:30:01.760Z"
  },
  {
    "visit": 15,
    "longitude": 120.25168441453,
    "latitude": 22.99871999678,
    "name": "異人館咖啡部屋 崑山店",
    "date": "2016-06-10T14:30:01.760Z"
  },
  {
    "visit": 15,
    "longitude": 120.2389,
    "latitude": 22.98517,
    "name": "異人館（裕平店）",
    "date": "2016-06-10T14:30:01.760Z"
  },
  {
    "visit": 15,
    "longitude": 120.20615,
    "latitude": 22.99836,
    "name": "大觀音亭",
    "date": "2016-06-10T14:30:01.760Z"
  },
  {
    "visit": 15,
    "longitude": 120.25086971588,
    "latitude": 23.03161715053,
    "name": "台南永康歐洲世界",
    "date": "2016-06-10T14:30:01.760Z"
  },
  {
    "visit": 16,
    "longitude": 120.20828191015,
    "latitude": 23.000280946257,
    "name": "紅狼美式酒吧",
    "date": "2016-06-10T14:30:01.760Z"
  },
  {
    "visit": 16,
    "longitude": 120.18671904611,
    "latitude": 23.007568949352,
    "name": "和緯黃昏市場",
    "date": "2016-06-10T14:30:01.760Z"
  },
  {
    "visit": 16,
    "longitude": 120.19786,
    "latitude": 22.99334,
    "name": "福榮小吃—阿瑞意麵",
    "date": "2016-06-10T14:30:01.760Z"
  },
  {
    "visit": 17,
    "longitude": 120.24821,
    "latitude": 23.18378,
    "name": "阿榮牛肉湯",
    "date": "2016-06-10T14:30:01.760Z"
  },
  {
    "visit": 17,
    "longitude": 120.19615299984,
    "latitude": 23.001582749048,
    "name": "Mr.wheat 小麥先生創意料理 - 台南金華店",
    "date": "2016-06-10T14:30:01.760Z"
  },
  {
    "visit": 17,
    "longitude": 120.21638888889,
    "latitude": 22.994166666667,
    "name": "National Tainan First Senior High School",
    "date": "2016-06-10T14:30:01.760Z"
  },
  {
    "visit": 17,
    "longitude": 120.28198967959,
    "latitude": 23.098611597355,
    "name": "Park17",
    "date": "2016-06-10T14:30:01.760Z"
  },
  {
    "visit": 17,
    "longitude": 120.22234,
    "latitude": 22.9828,
    "name": "築地專售壽司",
    "date": "2016-06-10T14:30:01.760Z"
  },
  {
    "visit": 18,
    "longitude": 120.2041,
    "latitude": 22.99374,
    "name": "台南天壇－天公廟",
    "date": "2016-06-10T14:30:01.760Z"
  },
  {
    "visit": 18,
    "longitude": 120.2175331,
    "latitude": 22.9844517,
    "name": "World Gym 長榮店",
    "date": "2016-06-10T14:30:01.760Z"
  },
  {
    "visit": 18,
    "longitude": 120.19769,
    "latitude": 22.99334,
    "name": "江水號",
    "date": "2016-06-10T14:30:01.760Z"
  },
  {
    "visit": 19,
    "longitude": 120.22122417549,
    "latitude": 22.973993912762,
    "name": "健身工廠（德安廠）",
    "date": "2016-06-10T14:30:01.760Z"
  },
  {
    "visit": 19,
    "longitude": 120.22189504437,
    "latitude": 22.978460854064,
    "name": "定食8崇學店",
    "date": "2016-06-10T14:30:01.760Z"
  },
  {
    "visit": 19,
    "longitude": 120.252,
    "latitude": 23.1888,
    "name": "蘋果森林餐廳",
    "date": "2016-06-10T14:30:01.760Z"
  },
  {
    "visit": 19,
    "longitude": 120.19392913823,
    "latitude": 22.986546030482,
    "name": "水萍塭公園",
    "date": "2016-06-10T14:30:01.760Z"
  },
  {
    "visit": 19,
    "longitude": 120.22342,
    "latitude": 22.9935,
    "name": "開普三號店 CAPE CAFE 3",
    "date": "2016-06-10T14:30:01.760Z"
  },
  {
    "visit": 20,
    "longitude": 120.19913996231,
    "latitude": 23.045362014124,
    "name": "台南市果菜批發市場",
    "date": "2016-06-10T14:30:01.760Z"
  },
  {
    "visit": 20,
    "longitude": 120.25833909,
    "latitude": 23.03247518,
    "name": "永康 龍潭",
    "date": "2016-06-10T14:30:01.760Z"
  },
  {
    "visit": 20,
    "longitude": 120.1680442,
    "latitude": 22.9865629,
    "name": "In STYLE hair studio",
    "date": "2016-06-10T14:30:01.760Z"
  },
  {
    "visit": 21,
    "longitude": 120.21219499254,
    "latitude": 22.990139292042,
    "name": "Free will",
    "date": "2016-06-10T14:30:01.760Z"
  },
  {
    "visit": 21,
    "longitude": 120.19909216516,
    "latitude": 22.988003531664,
    "name": "晶英酒店 Robin's 牛排屋",
    "date": "2016-06-10T14:30:01.760Z"
  },
  {
    "visit": 21,
    "longitude": 120.240435,
    "latitude": 22.997231,
    "name": "永康復興彩虹眷村",
    "date": "2016-06-10T14:30:01.760Z"
  },
  {
    "visit": 21,
    "longitude": 120.21332403897,
    "latitude": 23.003999193997,
    "name": "野宴日式炭火燒肉-北門店",
    "date": "2016-06-10T14:30:01.760Z"
  },
  {
    "visit": 21,
    "longitude": 120.18199422583,
    "latitude": 22.992884723416,
    "name": "上原日本料理",
    "date": "2016-06-10T14:30:01.760Z"
  },
  {
    "visit": 22,
    "longitude": 120.21433034923,
    "latitude": 22.996634510367,
    "name": "台南遠東香格里拉10FBuffet",
    "date": "2016-06-10T14:30:01.760Z"
  },
  {
    "visit": 22,
    "longitude": 120.19508,
    "latitude": 22.98783,
    "name": "東京益田日本料理",
    "date": "2016-06-10T14:30:01.760Z"
  },
  {
    "visit": 22,
    "longitude": 120.19794,
    "latitude": 22.98834,
    "name": "partyworld ktv ● 錢櫃台南西門店",
    "date": "2016-06-10T14:30:01.760Z"
  },
  {
    "visit": 22,
    "longitude": 120.21672,
    "latitude": 22.9956299,
    "name": "瘋牛排洋食Fun Steak",
    "date": "2016-06-10T14:30:01.760Z"
  },
  {
    "visit": 23,
    "longitude": 120.21643000519,
    "latitude": 23.000119669706,
    "name": "成大榕園",
    "date": "2016-06-10T14:30:01.760Z"
  },
  {
    "visit": 24,
    "longitude": 120.22057687337,
    "latitude": 22.9922225016,
    "name": "韓朝 東寧店",
    "date": "2016-06-10T14:30:01.760Z"
  },
  {
    "visit": 25,
    "longitude": 120.21113521267,
    "latitude": 22.975482946898,
    "name": "阿輝黑輪",
    "date": "2016-06-10T14:30:01.760Z"
  },
  {
    "visit": 26,
    "longitude": 120.25358891503,
    "latitude": 23.038462654754,
    "name": "永康火車站 Yongkang Station",
    "date": "2016-06-10T14:30:01.760Z"
  },
  {
    "visit": 26,
    "longitude": 120.2160109703,
    "latitude": 22.985807155289,
    "name": "Kadoya喫茶店",
    "date": "2016-06-10T14:30:01.760Z"
  },
  {
    "visit": 26,
    "longitude": 120.21793,
    "latitude": 22.9917,
    "name": "波哥茶飲(台南勝利店)",
    "date": "2016-06-10T14:30:01.760Z"
  },
  {
    "visit": 26,
    "longitude": 120.24004402706,
    "latitude": 22.982150906613,
    "name": "台南市立復興國中",
    "date": "2016-06-10T14:30:01.760Z"
  },
  {
    "visit": 27,
    "longitude": 120.221138,
    "latitude": 22.9953194,
    "name": "轉角餐廳 Corner Steak House",
    "date": "2016-06-10T14:30:01.760Z"
  },
  {
    "visit": 28,
    "longitude": 120.21055297138,
    "latitude": 22.992012017162,
    "name": "萬昌街波哥",
    "date": "2016-06-10T14:30:01.760Z"
  },
  {
    "visit": 28,
    "longitude": 120.16354365875,
    "latitude": 22.990438462529,
    "name": "億載國小",
    "date": "2016-06-10T14:30:01.760Z"
  },
  {
    "visit": 28,
    "longitude": 120.2331082478,
    "latitude": 22.990812924633,
    "name": "藍屋おいや和風御膳-南紡夢時代",
    "date": "2016-06-10T14:30:01.760Z"
  },
  {
    "visit": 28,
    "longitude": 120.22145724028,
    "latitude": 22.975077761533,
    "name": "台南市立文化中心演藝廳",
    "date": "2016-06-10T14:30:01.760Z"
  },
  {
    "visit": 29,
    "longitude": 120.213888889,
    "latitude": 22.9886111111,
    "name": "Tainan Theological College and Seminary",
    "date": "2016-06-10T14:30:01.760Z"
  },
  {
    "visit": 29,
    "longitude": 120.48392960005,
    "latitude": 22.88294067157,
    "name": "旗山",
    "date": "2016-06-10T14:30:01.760Z"
  },
  {
    "visit": 29,
    "longitude": 120.18091,
    "latitude": 22.9895299,
    "name": "吾亦私永華店",
    "date": "2016-06-10T14:30:01.760Z"
  },
  {
    "visit": 29,
    "longitude": 120.20792,
    "latitude": 23.0147,
    "name": "　花園釣蝦場",
    "date": "2016-06-10T14:30:01.760Z"
  },
  {
    "visit": 30,
    "longitude": 120.21306038132,
    "latitude": 22.989398637653,
    "name": "Tainan Sin Lau hospital",
    "date": "2016-06-10T14:30:01.760Z"
  },
  {
    "visit": 30,
    "longitude": 120.21069594405,
    "latitude": 23.001824288535,
    "name": "台南公園",
    "date": "2016-06-10T14:30:01.760Z"
  },
  {
    "visit": 30,
    "longitude": 120.20705,
    "latitude": 22.9882199,
    "name": "台南市臨水夫人媽廟",
    "date": "2016-06-10T14:30:01.760Z"
  },
  {
    "visit": 30,
    "longitude": 120.16334912908,
    "latitude": 23.000192375721,
    "name": "台南安平古堡老街",
    "date": "2016-06-10T14:30:01.760Z"
  },
  {
    "visit": 31,
    "longitude": 120.2625961,
    "latitude": 23.1894474,
    "name": "國立曾文高級農工職業學校",
    "date": "2016-06-10T14:30:01.760Z"
  },
  {
    "visit": 31,
    "longitude": 120.214758,
    "latitude": 22.9937616,
    "name": "黑工號 嫩仙草",
    "date": "2016-06-10T14:30:01.760Z"
  },
  {
    "visit": 32,
    "longitude": 120.18730048133,
    "latitude": 22.990860843203,
    "name": "台南生活美學館",
    "date": "2016-06-10T14:30:01.760Z"
  },
  {
    "visit": 32,
    "longitude": 120.16086967485,
    "latitude": 23.000506180217,
    "name": "安平開台天后宮",
    "date": "2016-06-10T14:30:01.760Z"
  },
  {
    "visit": 32,
    "longitude": 120.19617022702,
    "latitude": 22.99238386733,
    "name": "赤嵌棺材板",
    "date": "2016-06-10T14:30:01.760Z"
  },
  {
    "visit": 32,
    "longitude": 120.1782,
    "latitude": 23.16043,
    "name": "佳里麥當勞",
    "date": "2016-06-10T14:30:01.760Z"
  },
  {
    "visit": 32,
    "longitude": 120.18773261116,
    "latitude": 23.007500481868,
    "name": "天成複合式主題館",
    "date": "2016-06-10T14:30:01.760Z"
  },
  {
    "visit": 33,
    "longitude": 120.22068,
    "latitude": 22.97383,
    "name": "騎士堡愛麗絲的家",
    "date": "2016-06-10T14:30:01.760Z"
  },
  {
    "visit": 33,
    "longitude": 120.2336752,
    "latitude": 22.9912468,
    "name": "跳舞香水 南紡夢時代",
    "date": "2016-06-10T14:30:01.760Z"
  },
  {
    "visit": 33,
    "longitude": 120.21818488133,
    "latitude": 23.002205663651,
    "name": "台南成大醫院",
    "date": "2016-06-10T14:30:01.760Z"
  },
  {
    "visit": 33,
    "longitude": 120.206042,
    "latitude": 22.99549,
    "name": "Mr.onion 洋蔥牛排",
    "date": "2016-06-10T14:30:01.760Z"
  },
  {
    "visit": 33,
    "longitude": 120.17265,
    "latitude": 22.99114,
    "name": "Daylight光合箱子",
    "date": "2016-06-10T14:30:01.760Z"
  },
  {
    "visit": 34,
    "longitude": 120.1862869,
    "latitude": 22.9779606,
    "name": "是吉祥火鍋",
    "date": "2016-06-10T14:30:01.760Z"
  },
  {
    "visit": 35,
    "longitude": 120.2402,
    "latitude": 22.99803,
    "name": "復興老兵文化園區",
    "date": "2016-06-10T14:30:01.760Z"
  },
  {
    "visit": 35,
    "longitude": 120.18595186813,
    "latitude": 22.98993393,
    "name": "台南市議會",
    "date": "2016-06-10T14:30:01.760Z"
  },
  {
    "visit": 35,
    "longitude": 120.21526,
    "latitude": 22.98879,
    "name": "毛丼 丼飯專門店",
    "date": "2016-06-10T14:30:01.760Z"
  },
  {
    "visit": 36,
    "longitude": 120.2192078,
    "latitude": 23.0021992,
    "name": "成大醫院",
    "date": "2016-06-10T14:30:01.760Z"
  },
  {
    "visit": 36,
    "longitude": 120.19637416831,
    "latitude": 22.997658165585,
    "name": "神農街",
    "date": "2016-06-10T14:30:01.760Z"
  },
  {
    "visit": 38,
    "longitude": 120.25927524024,
    "latitude": 23.021276174532,
    "name": "永康探索公園",
    "date": "2016-06-10T14:30:01.760Z"
  },
  {
    "visit": 38,
    "longitude": 120.18932,
    "latitude": 22.99203,
    "name": "多一點咖啡館-台南美學館-品牌特許授權店",
    "date": "2016-06-10T14:30:01.760Z"
  },
  {
    "visit": 39,
    "longitude": 120.16316,
    "latitude": 22.99977,
    "name": "安平周氏蝦捲",
    "date": "2016-06-10T14:30:01.760Z"
  },
  {
    "visit": 40,
    "longitude": 120.08330892488,
    "latitude": 23.218290256758,
    "name": "馬沙溝海水浴場 Masago Beach",
    "date": "2016-06-10T14:30:01.760Z"
  },
  {
    "visit": 41,
    "longitude": 120.21560359044,
    "latitude": 22.997793962917,
    "name": "NCKU光復校區 成功廳",
    "date": "2016-06-10T14:30:01.760Z"
  },
  {
    "visit": 41,
    "longitude": 120.29007762211,
    "latitude": 23.0681208078,
    "name": "台南新市火車站",
    "date": "2016-06-10T14:30:01.760Z"
  },
  {
    "visit": 41,
    "longitude": 120.20270271355,
    "latitude": 22.991666504651,
    "name": "台南市陶板屋忠義店",
    "date": "2016-06-10T14:30:01.760Z"
  },
  {
    "visit": 45,
    "longitude": 120.22693805104,
    "latitude": 23.002116403526,
    "name": "永林牛肉火鍋 台灣台南美食綜合料理 Tainan, Taiwan Local Delicious food: Yonlin Restaurant",
    "date": "2016-06-10T14:30:01.760Z"
  },
  {
    "visit": 45,
    "longitude": 120.18658900007,
    "latitude": 22.986884329,
    "name": "輕井澤鍋物 台南店",
    "date": "2016-06-10T14:30:01.760Z"
  },
  {
    "visit": 46,
    "longitude": 120.18382,
    "latitude": 22.99347,
    "name": "碳佐麻里 -府前店",
    "date": "2016-06-10T14:30:01.760Z"
  },
  {
    "visit": 46,
    "longitude": 120.18466,
    "latitude": 22.98902,
    "name": "夏慕尼新香榭鐵板燒-台南永華店",
    "date": "2016-06-10T14:30:01.760Z"
  },
  {
    "visit": 47,
    "longitude": 120.22631,
    "latitude": 22.99154,
    "name": "上海好味道小籠湯包",
    "date": "2016-06-10T14:30:01.760Z"
  },
  {
    "visit": 47,
    "longitude": 120.29100980486,
    "latitude": 23.067827738028,
    "name": "台南新市區",
    "date": "2016-06-10T14:30:01.760Z"
  },
  {
    "visit": 49,
    "longitude": 120.21313,
    "latitude": 22.99242,
    "name": "臺南知事官邸",
    "date": "2016-06-10T14:30:01.760Z"
  },
  {
    "visit": 50,
    "longitude": 120.22328,
    "latitude": 22.98706,
    "name": "比薩茶坊",
    "date": "2016-06-10T14:30:01.760Z"
  },
  {
    "visit": 50,
    "longitude": 120.2008133,
    "latitude": 22.9818993,
    "name": "家齊女中",
    "date": "2016-06-10T14:30:01.760Z"
  },
  {
    "visit": 50,
    "longitude": 120.22749,
    "latitude": 23.01801,
    "name": "碳佐麻里_永康店",
    "date": "2016-06-10T14:30:01.760Z"
  },
  {
    "visit": 51,
    "longitude": 120.21666666667,
    "latitude": 23,
    "name": "National Cheng Kung University",
    "date": "2016-06-10T14:30:01.760Z"
  },
  {
    "visit": 51,
    "longitude": 120.1879653,
    "latitude": 23.0077551,
    "name": "天成複合式釣蝦埸",
    "date": "2016-06-10T14:30:01.760Z"
  },
  {
    "visit": 51,
    "longitude": 120.21722757835,
    "latitude": 22.996498061546,
    "name": "國立成功大學",
    "date": "2016-06-10T14:30:01.760Z"
  },
  {
    "visit": 52,
    "longitude": 120.20195563603,
    "latitude": 23.002995059302,
    "name": "夏慕尼公園店",
    "date": "2016-06-10T14:30:01.760Z"
  },
  {
    "visit": 53,
    "longitude": 120.22841,
    "latitude": 22.98018,
    "name": "婦兒安婦幼中心",
    "date": "2016-06-10T14:30:01.760Z"
  },
  {
    "visit": 54,
    "longitude": 120.23284860482,
    "latitude": 22.984599802073,
    "name": "健身工廠《中華廠》",
    "date": "2016-06-10T14:30:01.760Z"
  },
  {
    "visit": 54,
    "longitude": 120.19581145527,
    "latitude": 22.996994474522,
    "name": "台南西羅殿廣澤尊王",
    "date": "2016-06-10T14:30:01.760Z"
  },
  {
    "visit": 55,
    "longitude": 120.1474464754,
    "latitude": 22.997215896129,
    "name": "海之味海產餐廳 - 旗艦店",
    "date": "2016-06-10T14:30:01.760Z"
  },
  {
    "visit": 58,
    "longitude": 120.1976860957,
    "latitude": 22.993864149254,
    "name": "國華街淺草青春新天地",
    "date": "2016-06-10T14:30:01.760Z"
  },
  {
    "visit": 60,
    "longitude": 120.18570852685,
    "latitude": 22.998042744245,
    "name": "台南市安平區運河",
    "date": "2016-06-10T14:30:01.760Z"
  },
  {
    "visit": 61,
    "longitude": 120.22170290993,
    "latitude": 23.020359741622,
    "name": "奇美醫院急診室",
    "date": "2016-06-10T14:30:01.760Z"
  },
  {
    "visit": 64,
    "longitude": 120.19907697497,
    "latitude": 22.987889801147,
    "name": "台南晶英酒店 Robin's Grill•teppan•lounge",
    "date": "2016-06-10T14:30:01.760Z"
  },
  {
    "visit": 66,
    "longitude": 120.2104,
    "latitude": 22.99464,
    "name": "西堤 Tasty (台南民族店)",
    "date": "2016-06-10T14:30:01.760Z"
  },
  {
    "visit": 67,
    "longitude": 120.25188,
    "latitude": 23.02915,
    "name": "聯盈發點心專門店",
    "date": "2016-06-10T14:30:01.760Z"
  },
  {
    "visit": 68,
    "longitude": 120.24806508478,
    "latitude": 23.183110966778,
    "name": "台南巿麻豆區",
    "date": "2016-06-10T14:30:01.760Z"
  },
  {
    "visit": 71,
    "longitude": 120.2957203204,
    "latitude": 23.131418048635,
    "name": "善化天佳KTV釣蝦場",
    "date": "2016-06-10T14:30:01.760Z"
  },
  {
    "visit": 71,
    "longitude": 120.1986886,
    "latitude": 22.9882905,
    "name": "台南晶英酒店",
    "date": "2016-06-10T14:30:01.760Z"
  },
  {
    "visit": 72,
    "longitude": 120.1948633,
    "latitude": 22.9892868,
    "name": "六千牛肉湯",
    "date": "2016-06-10T14:30:01.760Z"
  },
  {
    "visit": 72,
    "longitude": 120.19918,
    "latitude": 22.99783,
    "name": "永樂燒肉飯",
    "date": "2016-06-10T14:30:01.760Z"
  },
  {
    "visit": 74,
    "longitude": 120.1936512,
    "latitude": 23.0161435,
    "name": "極鮮火鍋文賢店",
    "date": "2016-06-10T14:30:01.760Z"
  },
  {
    "visit": 75,
    "longitude": 120.23286110897,
    "latitude": 22.990083919179,
    "name": "台南夢時代",
    "date": "2016-06-10T14:30:01.760Z"
  },
  {
    "visit": 76,
    "longitude": 120.20517827393,
    "latitude": 22.982567423057,
    "name": "懷舊小棧 - 五妃廟口豆腐冰",
    "date": "2016-06-10T14:30:01.760Z"
  },
  {
    "visit": 77,
    "longitude": 120.25565253776,
    "latitude": 23.025947282067,
    "name": "永康國小",
    "date": "2016-06-10T14:30:01.760Z"
  },
  {
    "visit": 80,
    "longitude": 120.3077,
    "latitude": 23.0345,
    "name": "台南-新化老街",
    "date": "2016-06-10T14:30:01.760Z"
  },
  {
    "visit": 87,
    "longitude": 120.2329270874,
    "latitude": 22.991070062938,
    "name": "老爺酒店甘粹餐廳",
    "date": "2016-06-10T14:30:01.760Z"
  },
  {
    "visit": 89,
    "longitude": 120.19768239964,
    "latitude": 22.993561897255,
    "name": "邱家傳統小吃小卷米粉",
    "date": "2016-06-10T14:30:01.760Z"
  },
  {
    "visit": 89,
    "longitude": 120.205319,
    "latitude": 22.9960915,
    "name": "大遠百華納威秀影城",
    "date": "2016-06-10T14:30:01.760Z"
  },
  {
    "visit": 90,
    "longitude": 120.19885234763,
    "latitude": 22.987538694479,
    "name": "和逸•台南西門館",
    "date": "2016-06-10T14:30:01.760Z"
  },
  {
    "visit": 91,
    "longitude": 120.21543509477,
    "latitude": 23.040711711082,
    "name": "大安順ktv",
    "date": "2016-06-10T14:30:01.760Z"
  },
  {
    "visit": 93,
    "longitude": 120.21814627428,
    "latitude": 22.994897958529,
    "name": "勝利早點",
    "date": "2016-06-10T14:30:01.760Z"
  },
  {
    "visit": 94,
    "longitude": 120.2100688535,
    "latitude": 22.995789099976,
    "name": "Focus時尚流行館",
    "date": "2016-06-10T14:30:01.760Z"
  },
  {
    "visit": 96,
    "longitude": 120.20518002266,
    "latitude": 22.996877367139,
    "name": "台南美樂地KTV中成店",
    "date": "2016-06-10T14:30:01.760Z"
  },
  {
    "visit": 98,
    "longitude": 120.24263749071,
    "latitude": 23.043689602214,
    "name": "桂田酒店－阿力海百匯自助餐廳",
    "date": "2016-06-10T14:30:01.760Z"
  },
  {
    "visit": 102,
    "longitude": 120.1971893,
    "latitude": 22.9944401,
    "name": "泰成水果店",
    "date": "2016-06-10T14:30:01.760Z"
  },
  {
    "visit": 103,
    "longitude": 120.21941518344,
    "latitude": 23.002217206316,
    "name": "成大醫院住院大樓",
    "date": "2016-06-10T14:30:01.760Z"
  },
  {
    "visit": 104,
    "longitude": 120.19998,
    "latitude": 23.00013,
    "name": "丹丹漢堡成功店",
    "date": "2016-06-10T14:30:01.760Z"
  },
  {
    "visit": 107,
    "longitude": 120.18560977981,
    "latitude": 22.998099378598,
    "name": "樂禾田 早午餐.日夕食",
    "date": "2016-06-10T14:30:01.760Z"
  },
  {
    "visit": 113,
    "longitude": 120.21429077317,
    "latitude": 22.996495579963,
    "name": "Shangri-La Tainan 香格里拉台南遠東國際大飯店",
    "date": "2016-06-10T14:30:01.760Z"
  },
  {
    "visit": 132,
    "longitude": 120.19935552132,
    "latitude": 22.987762026228,
    "name": "Silks Place Tainan 台南晶英酒店",
    "date": "2016-06-10T14:30:01.760Z"
  },
  {
    "visit": 135,
    "longitude": 120.22338397002,
    "latitude": 22.998657955329,
    "name": "國立成功大學自強校區",
    "date": "2016-06-10T14:30:01.760Z"
  },
  {
    "visit": 138,
    "longitude": 120.20981575793,
    "latitude": 22.995100521131,
    "name": "新光三越 台南中山店",
    "date": "2016-06-10T14:30:01.760Z"
  },
  {
    "visit": 138,
    "longitude": 120.20123039561,
    "latitude": 22.999763941558,
    "name": "劉家肉粽",
    "date": "2016-06-10T14:30:01.760Z"
  },
  {
    "visit": 139,
    "longitude": 120.19793,
    "latitude": 22.98777,
    "name": "Tayih Landis Hotel Tainan 台南大億麗緻酒店",
    "date": "2016-06-10T14:30:01.760Z"
  },
  {
    "visit": 148,
    "longitude": 120.2619934,
    "latitude": 23.0194092,
    "name": "東東宴會式場永大幸福館",
    "date": "2016-06-10T14:30:01.760Z"
  },
  {
    "visit": 152,
    "longitude": 120.18022227667,
    "latitude": 23.157257039401,
    "name": "佳里星期四傳統夜市",
    "date": "2016-06-10T14:30:01.760Z"
  },
  {
    "visit": 154,
    "longitude": 120.19726951584,
    "latitude": 22.994355840866,
    "name": "蜷尾家 甘味处。。。散步甜食",
    "date": "2016-06-10T14:30:01.760Z"
  },
  {
    "visit": 167,
    "longitude": 120.19343913971,
    "latitude": 23.010363926672,
    "name": "Costco 台南店",
    "date": "2016-06-10T14:30:01.760Z"
  },
  {
    "visit": 172,
    "longitude": 120.16729,
    "latitude": 22.99894,
    "name": "安平古堡",
    "date": "2016-06-10T14:30:01.760Z"
  },
  {
    "visit": 177,
    "longitude": 120.15976038983,
    "latitude": 23.003754817156,
    "name": "德記洋行&安平樹屋",
    "date": "2016-06-10T14:30:01.760Z"
  },
  {
    "visit": 184,
    "longitude": 120.22393634554,
    "latitude": 22.934614922873,
    "name": "台南都會公園-奇美博物館",
    "date": "2016-06-10T14:30:01.760Z"
  },
  {
    "visit": 204,
    "longitude": 120.161134,
    "latitude": 23.003993,
    "name": "臺南安平老街",
    "date": "2016-06-10T14:30:01.760Z"
  },
  {
    "visit": 204,
    "longitude": 120.08332497859,
    "latitude": 23.218327424711,
    "name": "馬沙溝濱海遊憩區",
    "date": "2016-06-10T14:30:01.760Z"
  },
  {
    "visit": 206,
    "longitude": 120.1876511,
    "latitude": 22.9890909,
    "name": "Omaya春川炒雞台南永華店",
    "date": "2016-06-10T14:30:01.760Z"
  },
  {
    "visit": 215,
    "longitude": 120.20457,
    "latitude": 22.99017,
    "name": "台南 孔廟",
    "date": "2016-06-10T14:30:01.760Z"
  },
  {
    "visit": 222,
    "longitude": 120.15774199652,
    "latitude": 22.994065245015,
    "name": "林默娘公園",
    "date": "2016-06-10T14:30:01.760Z"
  },
  {
    "visit": 235,
    "longitude": 120.19821037581,
    "latitude": 22.98739150113,
    "name": "台南新光三越新天地-新光影城",
    "date": "2016-06-10T14:30:01.760Z"
  },
  {
    "visit": 251,
    "longitude": 120.22749,
    "latitude": 23.01801,
    "name": "碳佐麻里燒肉和食-永康中華店",
    "date": "2016-06-10T14:30:01.760Z"
  },
  {
    "visit": 252,
    "longitude": 120.21857,
    "latitude": 22.98422,
    "name": "深藍咖啡館",
    "date": "2016-06-10T14:30:01.760Z"
  },
  {
    "visit": 284,
    "longitude": 120.22554715615,
    "latitude": 22.934710000308,
    "name": "台南白宮～奇美博物館",
    "date": "2016-06-10T14:30:01.760Z"
  },
  {
    "visit": 290,
    "longitude": 120.23308607346,
    "latitude": 22.990726758622,
    "name": "南紡夢時代-華納影城",
    "date": "2016-06-10T14:30:01.760Z"
  },
  {
    "visit": 297,
    "longitude": 120.1771818012,
    "latitude": 23.162971188068,
    "name": "台南佳里區",
    "date": "2016-06-10T14:30:01.760Z"
  },
  {
    "visit": 362,
    "longitude": 120.20618754185,
    "latitude": 22.995549850652,
    "name": "台南大遠百-華納威秀",
    "date": "2016-06-10T14:30:01.760Z"
  },
  {
    "visit": 495,
    "longitude": 120.19863961208,
    "latitude": 22.987050210035,
    "name": "新光三越 台南西門店",
    "date": "2016-06-10T14:30:01.760Z"
  },
  {
    "visit": 499,
    "longitude": 120.19858368,
    "latitude": 22.98767847,
    "name": "稻禾烏龍麵inaka-台南新光三越小西門店",
    "date": "2016-06-10T14:30:01.760Z"
  },
  {
    "visit": 725,
    "longitude": 120.23293733967,
    "latitude": 22.99103966379,
    "name": "\"台南南紡\"夢時代購物中心",
    "date": "2016-06-10T14:30:01.760Z"
  },
  {
    "visit": 767,
    "longitude": 120.16080528271,
    "latitude": 23.001228038111,
    "name": "台南市安平古堡&老街",
    "date": "2016-06-10T14:30:01.760Z"
  },
  {
    "visit": 1855,
    "longitude": 120.23400289792,
    "latitude": 22.996153333333,
    "name": "台南 國賓影城",
    "date": "2016-06-10T14:30:01.760Z"
  }
]