[
  {
    "visit": 1,
    "longitude": 120.2462462807,
    "latitude": 23.18496804282,
    "name": "麻豆夜巿",
    "date": "2016-06-12T14:30:02.072Z"
  },
  {
    "visit": 1,
    "longitude": 120.2386531499,
    "latitude": 22.982431252393,
    "name": "台南市復興國小",
    "date": "2016-06-12T14:30:02.072Z"
  },
  {
    "visit": 1,
    "longitude": 120.21200062511,
    "latitude": 22.99715067333,
    "name": "臺南火車站",
    "date": "2016-06-12T14:30:02.072Z"
  },
  {
    "visit": 1,
    "longitude": 120.24029,
    "latitude": 23.00332,
    "name": "市立永仁高中",
    "date": "2016-06-12T14:30:02.072Z"
  },
  {
    "visit": 1,
    "longitude": 120.22276917184,
    "latitude": 23.024579240326,
    "name": "南台科技大學星巴克",
    "date": "2016-06-12T14:30:02.072Z"
  },
  {
    "visit": 1,
    "longitude": 120.18627,
    "latitude": 22.99187,
    "name": "台南市社會福利綜合大樓",
    "date": "2016-06-12T14:30:02.072Z"
  },
  {
    "visit": 1,
    "longitude": 120.18736958314,
    "latitude": 23.008716228999,
    "name": "全家樂",
    "date": "2016-06-12T14:30:02.072Z"
  },
  {
    "visit": 1,
    "longitude": 120.22355826271,
    "latitude": 22.999363759867,
    "name": "成大自強校區",
    "date": "2016-06-12T14:30:02.072Z"
  },
  {
    "visit": 1,
    "longitude": 120.28198967959,
    "latitude": 23.098611597355,
    "name": "Park17",
    "date": "2016-06-12T14:30:02.072Z"
  },
  {
    "visit": 1,
    "longitude": 120.29576,
    "latitude": 23.07897,
    "name": "新市國小",
    "date": "2016-06-12T14:30:02.072Z"
  },
  {
    "visit": 1,
    "longitude": 120.21016,
    "latitude": 22.9956299,
    "name": "focus 星巴克",
    "date": "2016-06-12T14:30:02.072Z"
  },
  {
    "visit": 1,
    "longitude": 120.17913393594,
    "latitude": 22.997524545472,
    "name": "南山人壽台南分公司",
    "date": "2016-06-12T14:30:02.072Z"
  },
  {
    "visit": 1,
    "longitude": 120.14699658705,
    "latitude": 22.989819453777,
    "name": "安平觀夕平台 Anping Sunset Platform",
    "date": "2016-06-12T14:30:02.072Z"
  },
  {
    "visit": 1,
    "longitude": 120.19841,
    "latitude": 22.99398,
    "name": "JJ-W Hotel",
    "date": "2016-06-12T14:30:02.072Z"
  },
  {
    "visit": 1,
    "longitude": 120.28209480738,
    "latitude": 23.101493306086,
    "name": "南科管理局",
    "date": "2016-06-12T14:30:02.072Z"
  },
  {
    "visit": 1,
    "longitude": 120.16354365875,
    "latitude": 22.990438462529,
    "name": "億載國小",
    "date": "2016-06-12T14:30:02.072Z"
  },
  {
    "visit": 1,
    "longitude": 120.28041299404,
    "latitude": 23.09468755166,
    "name": "瀚宇彩晶",
    "date": "2016-06-12T14:30:02.072Z"
  },
  {
    "visit": 2,
    "longitude": 120.22693805104,
    "latitude": 23.002116403526,
    "name": "永林牛肉火鍋 台灣台南美食綜合料理 Tainan, Taiwan Local Delicious food: Yonlin Restaurant",
    "date": "2016-06-12T14:30:02.072Z"
  },
  {
    "visit": 2,
    "longitude": 120.1611151,
    "latitude": 23.000049,
    "name": "安平天后宮",
    "date": "2016-06-12T14:30:02.072Z"
  },
  {
    "visit": 2,
    "longitude": 120.21016,
    "latitude": 22.9956299,
    "name": "Focus湯姆熊",
    "date": "2016-06-12T14:30:02.072Z"
  },
  {
    "visit": 2,
    "longitude": 120.20817,
    "latitude": 22.99473,
    "name": "Donutes台南店",
    "date": "2016-06-12T14:30:02.072Z"
  },
  {
    "visit": 2,
    "longitude": 120.22745,
    "latitude": 22.99728,
    "name": "布朗趣英式早午餐",
    "date": "2016-06-12T14:30:02.072Z"
  },
  {
    "visit": 2,
    "longitude": 120.210877855,
    "latitude": 22.99504133,
    "name": "D.D BEAR",
    "date": "2016-06-12T14:30:02.072Z"
  },
  {
    "visit": 2,
    "longitude": 120.29516638,
    "latitude": 23.128348572267,
    "name": "大成國小",
    "date": "2016-06-12T14:30:02.072Z"
  },
  {
    "visit": 2,
    "longitude": 120.17490645118,
    "latitude": 22.998079110914,
    "name": "台南安平周式煆捲",
    "date": "2016-06-12T14:30:02.072Z"
  },
  {
    "visit": 2,
    "longitude": 120.23667635759,
    "latitude": 23.00903285162,
    "name": "五王國民小學",
    "date": "2016-06-12T14:30:02.072Z"
  },
  {
    "visit": 2,
    "longitude": 120.21150978657,
    "latitude": 22.989533475104,
    "name": "Map北門形象館",
    "date": "2016-06-12T14:30:02.072Z"
  },
  {
    "visit": 2,
    "longitude": 120.18655381206,
    "latitude": 22.991333489171,
    "name": "台南市市政府籃球場",
    "date": "2016-06-12T14:30:02.072Z"
  },
  {
    "visit": 2,
    "longitude": 120.19793,
    "latitude": 22.98777,
    "name": "大億麗緻酒店Lips lounge bar",
    "date": "2016-06-12T14:30:02.072Z"
  },
  {
    "visit": 3,
    "longitude": 120.1534450108,
    "latitude": 23.000111199536,
    "name": "台南四草濕地（台江國家公園）綠色隧道",
    "date": "2016-06-12T14:30:02.072Z"
  },
  {
    "visit": 3,
    "longitude": 120.25335,
    "latitude": 23.02252,
    "name": "國立台南大學附屬高級中學",
    "date": "2016-06-12T14:30:02.072Z"
  },
  {
    "visit": 3,
    "longitude": 120.2338603203,
    "latitude": 23.008533313622,
    "name": "MOS摩斯漢堡永康中華店",
    "date": "2016-06-12T14:30:02.072Z"
  },
  {
    "visit": 3,
    "longitude": 120.18938,
    "latitude": 22.9973,
    "name": "新臨安橋-台南彩虹橋",
    "date": "2016-06-12T14:30:02.072Z"
  },
  {
    "visit": 3,
    "longitude": 120.20207,
    "latitude": 22.99106,
    "name": "花川日式料理",
    "date": "2016-06-12T14:30:02.072Z"
  },
  {
    "visit": 3,
    "longitude": 120.19780200611,
    "latitude": 22.988245991803,
    "name": "台南西門錢櫃KTV",
    "date": "2016-06-12T14:30:02.072Z"
  },
  {
    "visit": 3,
    "longitude": 120.20994534264,
    "latitude": 22.99571851868,
    "name": "Focus百貨WorldGym",
    "date": "2016-06-12T14:30:02.072Z"
  },
  {
    "visit": 3,
    "longitude": 120.21095,
    "latitude": 22.99473,
    "name": "麻吉的店(複合式餐飲)",
    "date": "2016-06-12T14:30:02.072Z"
  },
  {
    "visit": 3,
    "longitude": 120.19392913823,
    "latitude": 22.986546030482,
    "name": "水萍塭公園",
    "date": "2016-06-12T14:30:02.072Z"
  },
  {
    "visit": 4,
    "longitude": 120.19763413239,
    "latitude": 22.993611368859,
    "name": "Chiuanhouse",
    "date": "2016-06-12T14:30:02.072Z"
  },
  {
    "visit": 4,
    "longitude": 120.30165258872,
    "latitude": 23.077691096642,
    "name": "Dartwits Dormitory No.1 Guoji Road Shinsi District Tainan City Taiwan",
    "date": "2016-06-12T14:30:02.072Z"
  },
  {
    "visit": 4,
    "longitude": 120.22650837005,
    "latitude": 23.031447811711,
    "name": "HONDA永康店",
    "date": "2016-06-12T14:30:02.072Z"
  },
  {
    "visit": 4,
    "longitude": 120.19173,
    "latitude": 22.98664,
    "name": "廣東沙茶爐",
    "date": "2016-06-12T14:30:02.072Z"
  },
  {
    "visit": 4,
    "longitude": 120.2217,
    "latitude": 22.99586,
    "name": "Starbucks 長榮門市",
    "date": "2016-06-12T14:30:02.072Z"
  },
  {
    "visit": 4,
    "longitude": 120.22185559466,
    "latitude": 22.989340099854,
    "name": "私立長榮高級中學 Chang Jung Senior High School",
    "date": "2016-06-12T14:30:02.072Z"
  },
  {
    "visit": 4,
    "longitude": 120.25086971588,
    "latitude": 23.03161715053,
    "name": "台南永康歐洲世界",
    "date": "2016-06-12T14:30:02.072Z"
  },
  {
    "visit": 4,
    "longitude": 120.2661,
    "latitude": 23.0133,
    "name": "台南市永康區大灣",
    "date": "2016-06-12T14:30:02.072Z"
  },
  {
    "visit": 4,
    "longitude": 120.19605929352,
    "latitude": 22.979536452935,
    "name": "新興國小",
    "date": "2016-06-12T14:30:02.072Z"
  },
  {
    "visit": 4,
    "longitude": 120.25916511387,
    "latitude": 23.0367765012,
    "name": "森品複合式餐飲店",
    "date": "2016-06-12T14:30:02.072Z"
  },
  {
    "visit": 5,
    "longitude": 120.21468602193,
    "latitude": 22.997505891636,
    "name": "國立成功大學光復操場",
    "date": "2016-06-12T14:30:02.072Z"
  },
  {
    "visit": 5,
    "longitude": 120.1901943271,
    "latitude": 23.040243567454,
    "name": "同安夜市",
    "date": "2016-06-12T14:30:02.072Z"
  },
  {
    "visit": 5,
    "longitude": 120.20828191015,
    "latitude": 23.000280946257,
    "name": "紅狼美式酒吧",
    "date": "2016-06-12T14:30:02.072Z"
  },
  {
    "visit": 5,
    "longitude": 120.21000548442,
    "latitude": 22.995785498373,
    "name": "台南Focus~WorldGym世界健身俱樂部",
    "date": "2016-06-12T14:30:02.072Z"
  },
  {
    "visit": 5,
    "longitude": 120.2178192,
    "latitude": 22.9795609,
    "name": "維達都會生活俱樂部 La Vida Health Club",
    "date": "2016-06-12T14:30:02.072Z"
  },
  {
    "visit": 5,
    "longitude": 120.2002396,
    "latitude": 22.99754461,
    "name": "悦津鹹粥",
    "date": "2016-06-12T14:30:02.072Z"
  },
  {
    "visit": 5,
    "longitude": 120.21881,
    "latitude": 22.97964,
    "name": "Malibu泰式料理餐廳",
    "date": "2016-06-12T14:30:02.072Z"
  },
  {
    "visit": 5,
    "longitude": 120.20519782594,
    "latitude": 22.99010517545,
    "name": "孔廟老街",
    "date": "2016-06-12T14:30:02.072Z"
  },
  {
    "visit": 5,
    "longitude": 120.21405833306,
    "latitude": 22.996547619391,
    "name": "台南香格里拉10樓遠東咖啡廳",
    "date": "2016-06-12T14:30:02.072Z"
  },
  {
    "visit": 5,
    "longitude": 120.21587721507,
    "latitude": 22.997538141459,
    "name": "國立成功大學國際會議廳",
    "date": "2016-06-12T14:30:02.072Z"
  },
  {
    "visit": 6,
    "longitude": 120.15338,
    "latitude": 22.99991,
    "name": "安平豆花☆",
    "date": "2016-06-12T14:30:02.072Z"
  },
  {
    "visit": 6,
    "longitude": 120.22123,
    "latitude": 22.9956299,
    "name": "KAFFE at HOME",
    "date": "2016-06-12T14:30:02.072Z"
  },
  {
    "visit": 6,
    "longitude": 120.22719,
    "latitude": 22.98257,
    "name": "吳峻賢婦產科",
    "date": "2016-06-12T14:30:02.072Z"
  },
  {
    "visit": 7,
    "longitude": 120.2614,
    "latitude": 23.02365,
    "name": "海中寶中華料理餐廳",
    "date": "2016-06-12T14:30:02.072Z"
  },
  {
    "visit": 7,
    "longitude": 120.19733,
    "latitude": 22.99435,
    "name": "正興街",
    "date": "2016-06-12T14:30:02.072Z"
  },
  {
    "visit": 7,
    "longitude": 120.26068363488,
    "latitude": 23.027670026131,
    "name": "台南市永康區",
    "date": "2016-06-12T14:30:02.072Z"
  },
  {
    "visit": 7,
    "longitude": 120.25565253776,
    "latitude": 23.025947282067,
    "name": "永康國小",
    "date": "2016-06-12T14:30:02.072Z"
  },
  {
    "visit": 7,
    "longitude": 120.22739,
    "latitude": 22.99046,
    "name": "多那之咖啡蛋糕烘焙台南東寧店",
    "date": "2016-06-12T14:30:02.072Z"
  },
  {
    "visit": 7,
    "longitude": 120.19769,
    "latitude": 22.99334,
    "name": "江水號",
    "date": "2016-06-12T14:30:02.072Z"
  },
  {
    "visit": 8,
    "longitude": 120.21306038132,
    "latitude": 22.989398637653,
    "name": "Tainan Sin Lau hospital",
    "date": "2016-06-12T14:30:02.072Z"
  },
  {
    "visit": 8,
    "longitude": 120.2331082478,
    "latitude": 22.990812924633,
    "name": "藍屋おいや和風御膳-南紡夢時代",
    "date": "2016-06-12T14:30:02.072Z"
  },
  {
    "visit": 8,
    "longitude": 120.2050849974,
    "latitude": 22.996828678508,
    "name": "美樂蒂中成店VIP包廂",
    "date": "2016-06-12T14:30:02.072Z"
  },
  {
    "visit": 8,
    "longitude": 120.2192078,
    "latitude": 23.0021992,
    "name": "成大醫院",
    "date": "2016-06-12T14:30:02.072Z"
  },
  {
    "visit": 8,
    "longitude": 120.22133846938,
    "latitude": 23.021652406151,
    "name": "綠蓋茶•館 台南中華店",
    "date": "2016-06-12T14:30:02.072Z"
  },
  {
    "visit": 8,
    "longitude": 120.20183,
    "latitude": 23.00025,
    "name": "嘟嘟牛排",
    "date": "2016-06-12T14:30:02.072Z"
  },
  {
    "visit": 8,
    "longitude": 120.20473,
    "latitude": 23.00243,
    "name": "大歡喜",
    "date": "2016-06-12T14:30:02.072Z"
  },
  {
    "visit": 8,
    "longitude": 120.2419,
    "latitude": 22.9868099,
    "name": "忠味麵店",
    "date": "2016-06-12T14:30:02.072Z"
  },
  {
    "visit": 8,
    "longitude": 120.21921,
    "latitude": 23.0021999,
    "name": "成大醫院急診部",
    "date": "2016-06-12T14:30:02.072Z"
  },
  {
    "visit": 9,
    "longitude": 120.206042,
    "latitude": 22.99549,
    "name": "Mr.onion 洋蔥牛排",
    "date": "2016-06-12T14:30:02.072Z"
  },
  {
    "visit": 9,
    "longitude": 120.21052887689,
    "latitude": 22.994172996672,
    "name": "萬昌起義",
    "date": "2016-06-12T14:30:02.072Z"
  },
  {
    "visit": 9,
    "longitude": 120.29084134795,
    "latitude": 23.078626211883,
    "name": "新市土地公臭豆腐",
    "date": "2016-06-12T14:30:02.072Z"
  },
  {
    "visit": 9,
    "longitude": 120.17729218584,
    "latitude": 23.167480133857,
    "name": "北門高中",
    "date": "2016-06-12T14:30:02.072Z"
  },
  {
    "visit": 9,
    "longitude": 120.22109105269,
    "latitude": 22.982336017913,
    "name": "銀座日式料理",
    "date": "2016-06-12T14:30:02.072Z"
  },
  {
    "visit": 9,
    "longitude": 120.17461,
    "latitude": 22.99818,
    "name": "台南周氏蝦捲總店",
    "date": "2016-06-12T14:30:02.072Z"
  },
  {
    "visit": 9,
    "longitude": 120.08330892488,
    "latitude": 23.218290256758,
    "name": "馬沙溝海水浴場 Masago Beach",
    "date": "2016-06-12T14:30:02.072Z"
  },
  {
    "visit": 9,
    "longitude": 120.17701185589,
    "latitude": 23.161174557172,
    "name": "佳里菜市場",
    "date": "2016-06-12T14:30:02.072Z"
  },
  {
    "visit": 10,
    "longitude": 120.21846061554,
    "latitude": 22.995345825567,
    "name": "鬥牛士二鍋成大店",
    "date": "2016-06-12T14:30:02.072Z"
  },
  {
    "visit": 10,
    "longitude": 120.19656153963,
    "latitude": 22.994845396489,
    "name": "Mumu白姆森林（美、義料理）",
    "date": "2016-06-12T14:30:02.072Z"
  },
  {
    "visit": 10,
    "longitude": 120.22966,
    "latitude": 22.99005,
    "name": "新都巷日本料理",
    "date": "2016-06-12T14:30:02.072Z"
  },
  {
    "visit": 10,
    "longitude": 120.22279,
    "latitude": 22.97962,
    "name": "加州廚房",
    "date": "2016-06-12T14:30:02.072Z"
  },
  {
    "visit": 10,
    "longitude": 120.18712944447,
    "latitude": 22.997735053692,
    "name": "星巴克 Starbucks 府中門市",
    "date": "2016-06-12T14:30:02.072Z"
  },
  {
    "visit": 11,
    "longitude": 120.21456,
    "latitude": 22.99382,
    "name": "AJ Burger美式餐廳",
    "date": "2016-06-12T14:30:02.072Z"
  },
  {
    "visit": 11,
    "longitude": 120.20790586704,
    "latitude": 22.990283538178,
    "name": "順風號",
    "date": "2016-06-12T14:30:02.072Z"
  },
  {
    "visit": 11,
    "longitude": 120.23124014952,
    "latitude": 23.008689449674,
    "name": "家樂福 台南中華店",
    "date": "2016-06-12T14:30:02.072Z"
  },
  {
    "visit": 11,
    "longitude": 120.29007762211,
    "latitude": 23.0681208078,
    "name": "台南新市火車站",
    "date": "2016-06-12T14:30:02.072Z"
  },
  {
    "visit": 11,
    "longitude": 120.22101,
    "latitude": 22.9951,
    "name": "Noah's ark 諾亞方舟主廚餐廳",
    "date": "2016-06-12T14:30:02.072Z"
  },
  {
    "visit": 11,
    "longitude": 120.235154067,
    "latitude": 23.003941326251,
    "name": "爭鮮迴轉寿司 Sushi Express 中華店",
    "date": "2016-06-12T14:30:02.072Z"
  },
  {
    "visit": 11,
    "longitude": 120.22190494667,
    "latitude": 23.020507384629,
    "name": "永康奇美醫院",
    "date": "2016-06-12T14:30:02.072Z"
  },
  {
    "visit": 11,
    "longitude": 120.29356,
    "latitude": 22.99219,
    "name": "保西國小",
    "date": "2016-06-12T14:30:02.072Z"
  },
  {
    "visit": 11,
    "longitude": 120.20493,
    "latitude": 22.98466,
    "name": "I - Mita 愛米塔。早午餐。輕食。蜜塔。",
    "date": "2016-06-12T14:30:02.072Z"
  },
  {
    "visit": 11,
    "longitude": 120.21331,
    "latitude": 22.9945099,
    "name": "府城騷烤家",
    "date": "2016-06-12T14:30:02.072Z"
  },
  {
    "visit": 11,
    "longitude": 120.2041,
    "latitude": 22.99374,
    "name": "台南天壇－天公廟",
    "date": "2016-06-12T14:30:02.072Z"
  },
  {
    "visit": 12,
    "longitude": 120.22571941866,
    "latitude": 23.006471724229,
    "name": "南園街鍋貼",
    "date": "2016-06-12T14:30:02.072Z"
  },
  {
    "visit": 12,
    "longitude": 120.20792,
    "latitude": 23.0147,
    "name": "　花園釣蝦場",
    "date": "2016-06-12T14:30:02.072Z"
  },
  {
    "visit": 12,
    "longitude": 120.21818488133,
    "latitude": 23.002205663651,
    "name": "台南成大醫院",
    "date": "2016-06-12T14:30:02.072Z"
  },
  {
    "visit": 12,
    "longitude": 120.19949022102,
    "latitude": 22.995107637143,
    "name": "花見宇治抹茶甘味処",
    "date": "2016-06-12T14:30:02.072Z"
  },
  {
    "visit": 13,
    "longitude": 120.21560359044,
    "latitude": 22.997793962917,
    "name": "NCKU光復校區 成功廳",
    "date": "2016-06-12T14:30:02.072Z"
  },
  {
    "visit": 13,
    "longitude": 120.224,
    "latitude": 22.98093,
    "name": "Oilily Cafe",
    "date": "2016-06-12T14:30:02.072Z"
  },
  {
    "visit": 13,
    "longitude": 120.19762277233,
    "latitude": 22.988117458101,
    "name": "台南大億麗緻酒店共同市場歐亞自助餐廳",
    "date": "2016-06-12T14:30:02.072Z"
  },
  {
    "visit": 13,
    "longitude": 120.24859627618,
    "latitude": 23.184505463519,
    "name": "林媽媽鍋燒意麵",
    "date": "2016-06-12T14:30:02.072Z"
  },
  {
    "visit": 14,
    "longitude": 120.21793,
    "latitude": 22.9917,
    "name": "波哥茶飲(台南勝利店)",
    "date": "2016-06-12T14:30:02.072Z"
  },
  {
    "visit": 14,
    "longitude": 120.21175326923,
    "latitude": 22.994279439162,
    "name": "台南市北門路",
    "date": "2016-06-12T14:30:02.072Z"
  },
  {
    "visit": 14,
    "longitude": 120.48190262491,
    "latitude": 22.888101491793,
    "name": "旗山85°C",
    "date": "2016-06-12T14:30:02.072Z"
  },
  {
    "visit": 14,
    "longitude": 120.223688,
    "latitude": 22.980319,
    "name": "薄多義bit2eat義大利麵pizza台南崇學",
    "date": "2016-06-12T14:30:02.072Z"
  },
  {
    "visit": 14,
    "longitude": 120.20887197922,
    "latitude": 22.996604862795,
    "name": "行政院衛生署台南醫院",
    "date": "2016-06-12T14:30:02.072Z"
  },
  {
    "visit": 14,
    "longitude": 120.25358891503,
    "latitude": 23.038462654754,
    "name": "永康火車站 Yongkang Station",
    "date": "2016-06-12T14:30:02.072Z"
  },
  {
    "visit": 14,
    "longitude": 120.19209877667,
    "latitude": 22.987786760748,
    "name": "金華路茶大",
    "date": "2016-06-12T14:30:02.072Z"
  },
  {
    "visit": 14,
    "longitude": 120.20556460294,
    "latitude": 22.985204217647,
    "name": "Tainan City,taiwan ROC",
    "date": "2016-06-12T14:30:02.072Z"
  },
  {
    "visit": 14,
    "longitude": 120.20710683167,
    "latitude": 22.979134611758,
    "name": "上鶴茶坊",
    "date": "2016-06-12T14:30:02.072Z"
  },
  {
    "visit": 14,
    "longitude": 120.2389,
    "latitude": 22.98517,
    "name": "異人館（裕平店）",
    "date": "2016-06-12T14:30:02.072Z"
  },
  {
    "visit": 14,
    "longitude": 120.221138,
    "latitude": 22.9953194,
    "name": "轉角餐廳 Corner Steak House",
    "date": "2016-06-12T14:30:02.072Z"
  },
  {
    "visit": 15,
    "longitude": 120.2073,
    "latitude": 22.979,
    "name": "歡喜樓",
    "date": "2016-06-12T14:30:02.072Z"
  },
  {
    "visit": 15,
    "longitude": 120.21313,
    "latitude": 22.99242,
    "name": "臺南知事官邸",
    "date": "2016-06-12T14:30:02.072Z"
  },
  {
    "visit": 15,
    "longitude": 120.19615299984,
    "latitude": 23.001582749048,
    "name": "Mr.wheat 小麥先生創意料理 - 台南金華店",
    "date": "2016-06-12T14:30:02.072Z"
  },
  {
    "visit": 15,
    "longitude": 120.16086967485,
    "latitude": 23.000506180217,
    "name": "安平開台天后宮",
    "date": "2016-06-12T14:30:02.072Z"
  },
  {
    "visit": 15,
    "longitude": 120.19876017363,
    "latitude": 22.986752747775,
    "name": "台南新光三越西門店花月嵐拉麵",
    "date": "2016-06-12T14:30:02.072Z"
  },
  {
    "visit": 15,
    "longitude": 120.22107832478,
    "latitude": 23.024788077567,
    "name": "Golden Brother's Dormit0ry",
    "date": "2016-06-12T14:30:02.072Z"
  },
  {
    "visit": 16,
    "longitude": 120.2214724,
    "latitude": 23.0082525,
    "name": "開元虱目魚",
    "date": "2016-06-12T14:30:02.072Z"
  },
  {
    "visit": 16,
    "longitude": 120.22334259435,
    "latitude": 23.004627826304,
    "name": "一二三冰城",
    "date": "2016-06-12T14:30:02.072Z"
  },
  {
    "visit": 16,
    "longitude": 120.14720880956,
    "latitude": 22.990248722282,
    "name": "安平觀夕平臺",
    "date": "2016-06-12T14:30:02.072Z"
  },
  {
    "visit": 16,
    "longitude": 120.20431,
    "latitude": 22.98574,
    "name": "迦南水果店",
    "date": "2016-06-12T14:30:02.072Z"
  },
  {
    "visit": 17,
    "longitude": 120.1596677562,
    "latitude": 23.003335876822,
    "name": "安平樹屋",
    "date": "2016-06-12T14:30:02.072Z"
  },
  {
    "visit": 17,
    "longitude": 120.2104,
    "latitude": 22.99464,
    "name": "西堤 Tasty (台南民族店)",
    "date": "2016-06-12T14:30:02.072Z"
  },
  {
    "visit": 17,
    "longitude": 120.19147197998,
    "latitude": 22.980443145573,
    "name": "石二鍋台南金華店",
    "date": "2016-06-12T14:30:02.072Z"
  },
  {
    "visit": 17,
    "longitude": 120.48169806656,
    "latitude": 22.887994162347,
    "name": "高雄旗山老街",
    "date": "2016-06-12T14:30:02.072Z"
  },
  {
    "visit": 17,
    "longitude": 120.18705685685,
    "latitude": 22.988698686301,
    "name": "Friday星期五餐廳",
    "date": "2016-06-12T14:30:02.072Z"
  },
  {
    "visit": 17,
    "longitude": 120.25168441453,
    "latitude": 22.99871999678,
    "name": "異人館咖啡部屋 崑山店",
    "date": "2016-06-12T14:30:02.072Z"
  },
  {
    "visit": 18,
    "longitude": 120.17520222568,
    "latitude": 22.991724971335,
    "name": "富霖宴會場•華平館",
    "date": "2016-06-12T14:30:02.072Z"
  },
  {
    "visit": 18,
    "longitude": 120.22057687337,
    "latitude": 22.9922225016,
    "name": "韓朝 東寧店",
    "date": "2016-06-12T14:30:02.072Z"
  },
  {
    "visit": 18,
    "longitude": 120.20207,
    "latitude": 22.99674,
    "name": "台南武廟",
    "date": "2016-06-12T14:30:02.072Z"
  },
  {
    "visit": 19,
    "longitude": 120.17265,
    "latitude": 22.99114,
    "name": "Daylight光合箱子",
    "date": "2016-06-12T14:30:02.072Z"
  },
  {
    "visit": 19,
    "longitude": 120.20232,
    "latitude": 22.99911,
    "name": "彩虹日本料理",
    "date": "2016-06-12T14:30:02.072Z"
  },
  {
    "visit": 19,
    "longitude": 120.20972222222,
    "latitude": 22.975555555556,
    "name": "臺南市立體育場",
    "date": "2016-06-12T14:30:02.072Z"
  },
  {
    "visit": 19,
    "longitude": 120.22853,
    "latitude": 23.03277,
    "name": "爭鮮迴轉壽司-中正(家)",
    "date": "2016-06-12T14:30:02.072Z"
  },
  {
    "visit": 20,
    "longitude": 120.48392960005,
    "latitude": 22.88294067157,
    "name": "旗山",
    "date": "2016-06-12T14:30:02.072Z"
  },
  {
    "visit": 21,
    "longitude": 120.22342,
    "latitude": 22.9935,
    "name": "開普三號店 CAPE CAFE 3",
    "date": "2016-06-12T14:30:02.072Z"
  },
  {
    "visit": 21,
    "longitude": 120.2063269,
    "latitude": 22.989597,
    "name": "台南府中街孔廟魅力商圈-2元黑輪",
    "date": "2016-06-12T14:30:02.072Z"
  },
  {
    "visit": 22,
    "longitude": 120.21428,
    "latitude": 23.01436,
    "name": "大光教會",
    "date": "2016-06-12T14:30:02.072Z"
  },
  {
    "visit": 23,
    "longitude": 120.15774199652,
    "latitude": 22.994065245015,
    "name": "林默娘公園",
    "date": "2016-06-12T14:30:02.072Z"
  },
  {
    "visit": 23,
    "longitude": 120.21921,
    "latitude": 23.0021999,
    "name": "國立成功大學醫學院",
    "date": "2016-06-12T14:30:02.072Z"
  },
  {
    "visit": 24,
    "longitude": 120.2826813912,
    "latitude": 23.098488558213,
    "name": "台南科學園區",
    "date": "2016-06-12T14:30:02.072Z"
  },
  {
    "visit": 24,
    "longitude": 120.294932,
    "latitude": 23.1309857,
    "name": "小桔子善化店",
    "date": "2016-06-12T14:30:02.072Z"
  },
  {
    "visit": 24,
    "longitude": 120.1879653,
    "latitude": 23.0077551,
    "name": "天成複合式釣蝦埸",
    "date": "2016-06-12T14:30:02.072Z"
  },
  {
    "visit": 24,
    "longitude": 120.20538,
    "latitude": 22.99803,
    "name": "異人館-成功店",
    "date": "2016-06-12T14:30:02.072Z"
  },
  {
    "visit": 24,
    "longitude": 120.2160109703,
    "latitude": 22.985807155289,
    "name": "Kadoya喫茶店",
    "date": "2016-06-12T14:30:02.072Z"
  },
  {
    "visit": 25,
    "longitude": 120.21040653295,
    "latitude": 22.995856220979,
    "name": "focus13F 佐佐義義大利麵",
    "date": "2016-06-12T14:30:02.072Z"
  },
  {
    "visit": 25,
    "longitude": 120.22100732643,
    "latitude": 22.990755954617,
    "name": "飛饗創意西式料理-旗艦總店",
    "date": "2016-06-12T14:30:02.072Z"
  },
  {
    "visit": 26,
    "longitude": 120.25188,
    "latitude": 23.02915,
    "name": "聯盈發點心專門店",
    "date": "2016-06-12T14:30:02.072Z"
  },
  {
    "visit": 26,
    "longitude": 120.22837910785,
    "latitude": 23.032797934538,
    "name": "定食8 - 永康家樂福店",
    "date": "2016-06-12T14:30:02.072Z"
  },
  {
    "visit": 27,
    "longitude": 120.08797711639,
    "latitude": 23.211039753914,
    "name": "馬沙溝將軍魚港",
    "date": "2016-06-12T14:30:02.072Z"
  },
  {
    "visit": 27,
    "longitude": 120.22068,
    "latitude": 22.97383,
    "name": "誠品書店-德安百貨",
    "date": "2016-06-12T14:30:02.072Z"
  },
  {
    "visit": 28,
    "longitude": 120.20204,
    "latitude": 22.99692,
    "name": "山根壽司",
    "date": "2016-06-12T14:30:02.072Z"
  },
  {
    "visit": 28,
    "longitude": 120.18925633512,
    "latitude": 22.989678207079,
    "name": "神田日本料理",
    "date": "2016-06-12T14:30:02.072Z"
  },
  {
    "visit": 28,
    "longitude": 120.2945524,
    "latitude": 23.078336,
    "name": "新市街上",
    "date": "2016-06-12T14:30:02.072Z"
  },
  {
    "visit": 28,
    "longitude": 120.22357,
    "latitude": 22.97369,
    "name": "有間冰舖 崇明店",
    "date": "2016-06-12T14:30:02.072Z"
  },
  {
    "visit": 28,
    "longitude": 120.24122803658,
    "latitude": 23.184890240688,
    "name": "台南麻豆碗粿蘭",
    "date": "2016-06-12T14:30:02.072Z"
  },
  {
    "visit": 29,
    "longitude": 120.21219499254,
    "latitude": 22.990139292042,
    "name": "Free will",
    "date": "2016-06-12T14:30:02.072Z"
  },
  {
    "visit": 30,
    "longitude": 120.23286110897,
    "latitude": 22.990083919179,
    "name": "台南夢時代",
    "date": "2016-06-12T14:30:02.072Z"
  },
  {
    "visit": 30,
    "longitude": 120.1474464754,
    "latitude": 22.997215896129,
    "name": "海之味海產餐廳 - 旗艦店",
    "date": "2016-06-12T14:30:02.072Z"
  },
  {
    "visit": 31,
    "longitude": 120.18773261116,
    "latitude": 23.007500481868,
    "name": "天成複合式主題館",
    "date": "2016-06-12T14:30:02.072Z"
  },
  {
    "visit": 31,
    "longitude": 120.19637416831,
    "latitude": 22.997658165585,
    "name": "神農街",
    "date": "2016-06-12T14:30:02.072Z"
  },
  {
    "visit": 32,
    "longitude": 120.20984411117,
    "latitude": 22.982640796177,
    "name": "東北酸白菜火鍋",
    "date": "2016-06-12T14:30:02.072Z"
  },
  {
    "visit": 32,
    "longitude": 120.22290319611,
    "latitude": 22.977009012109,
    "name": "台南崇德市場",
    "date": "2016-06-12T14:30:02.072Z"
  },
  {
    "visit": 34,
    "longitude": 120.18737,
    "latitude": 22.99277,
    "name": "爭鮮迴轉壽司",
    "date": "2016-06-12T14:30:02.072Z"
  },
  {
    "visit": 34,
    "longitude": 120.20392,
    "latitude": 22.98582,
    "name": "小荳荳鍋燒意麵",
    "date": "2016-06-12T14:30:02.072Z"
  },
  {
    "visit": 35,
    "longitude": 120.22328,
    "latitude": 22.98706,
    "name": "比薩茶坊",
    "date": "2016-06-12T14:30:02.072Z"
  },
  {
    "visit": 35,
    "longitude": 120.1868240837,
    "latitude": 22.982149893893,
    "name": "木匠炭火燒肉",
    "date": "2016-06-12T14:30:02.072Z"
  },
  {
    "visit": 35,
    "longitude": 120.17548199013,
    "latitude": 22.989375910681,
    "name": "台南市安平區",
    "date": "2016-06-12T14:30:02.072Z"
  },
  {
    "visit": 35,
    "longitude": 120.1729612872,
    "latitude": 22.998086687755,
    "name": "臺南安平",
    "date": "2016-06-12T14:30:02.072Z"
  },
  {
    "visit": 35,
    "longitude": 120.22511905,
    "latitude": 22.998710197147,
    "name": "澄花日式壽喜燒",
    "date": "2016-06-12T14:30:02.072Z"
  },
  {
    "visit": 36,
    "longitude": 120.20940420105,
    "latitude": 23.002125608966,
    "name": "台南中山公園捐血站",
    "date": "2016-06-12T14:30:02.072Z"
  },
  {
    "visit": 38,
    "longitude": 120.21998743797,
    "latitude": 22.998208693738,
    "name": "國立成功大學成功校區",
    "date": "2016-06-12T14:30:02.072Z"
  },
  {
    "visit": 38,
    "longitude": 120.21228380381,
    "latitude": 22.997908143605,
    "name": "和欣客運總站",
    "date": "2016-06-12T14:30:02.072Z"
  },
  {
    "visit": 39,
    "longitude": 120.18707872014,
    "latitude": 22.982340517677,
    "name": "北京麻辣鴛鴦火鍋",
    "date": "2016-06-12T14:30:02.072Z"
  },
  {
    "visit": 40,
    "longitude": 120.1976860957,
    "latitude": 22.993864149254,
    "name": "國華街淺草青春新天地",
    "date": "2016-06-12T14:30:02.072Z"
  },
  {
    "visit": 40,
    "longitude": 120.22136083815,
    "latitude": 22.9740211,
    "name": "德安百貨春水堂",
    "date": "2016-06-12T14:30:02.072Z"
  },
  {
    "visit": 41,
    "longitude": 120.214758,
    "latitude": 22.9937616,
    "name": "黑工號 嫩仙草",
    "date": "2016-06-12T14:30:02.072Z"
  },
  {
    "visit": 42,
    "longitude": 120.18658900007,
    "latitude": 22.986884329,
    "name": "輕井澤鍋物 台南店",
    "date": "2016-06-12T14:30:02.072Z"
  },
  {
    "visit": 42,
    "longitude": 120.22554715615,
    "latitude": 22.934710000308,
    "name": "台南白宮～奇美博物館",
    "date": "2016-06-12T14:30:02.072Z"
  },
  {
    "visit": 42,
    "longitude": 120.21286576434,
    "latitude": 22.979503641,
    "name": "香圃麵店",
    "date": "2016-06-12T14:30:02.072Z"
  },
  {
    "visit": 43,
    "longitude": 120.24409461827,
    "latitude": 22.989786633582,
    "name": "Starbucks星巴克典藏門市-虎尾寮",
    "date": "2016-06-12T14:30:02.072Z"
  },
  {
    "visit": 43,
    "longitude": 120.25178685648,
    "latitude": 23.029001937785,
    "name": "聯盈發港式飲茶",
    "date": "2016-06-12T14:30:02.072Z"
  },
  {
    "visit": 44,
    "longitude": 120.19964562025,
    "latitude": 22.992108589983,
    "name": "松仔腳燒烤海產",
    "date": "2016-06-12T14:30:02.072Z"
  },
  {
    "visit": 45,
    "longitude": 120.21941518344,
    "latitude": 23.002217206316,
    "name": "成大醫院住院大樓",
    "date": "2016-06-12T14:30:02.072Z"
  },
  {
    "visit": 45,
    "longitude": 120.2336752,
    "latitude": 22.9912468,
    "name": "跳舞香水 南紡夢時代",
    "date": "2016-06-12T14:30:02.072Z"
  },
  {
    "visit": 48,
    "longitude": 120.21722757835,
    "latitude": 22.996498061546,
    "name": "國立成功大學",
    "date": "2016-06-12T14:30:02.072Z"
  },
  {
    "visit": 48,
    "longitude": 120.1864651,
    "latitude": 22.9985868,
    "name": "台南大舞廳",
    "date": "2016-06-12T14:30:02.072Z"
  },
  {
    "visit": 48,
    "longitude": 120.21666666667,
    "latitude": 23,
    "name": "National Cheng Kung University",
    "date": "2016-06-12T14:30:02.072Z"
  },
  {
    "visit": 48,
    "longitude": 120.21083,
    "latitude": 22.99715,
    "name": "台南大飯店 Hotel Tainan",
    "date": "2016-06-12T14:30:02.072Z"
  },
  {
    "visit": 50,
    "longitude": 120.3077,
    "latitude": 23.0345,
    "name": "台南-新化老街",
    "date": "2016-06-12T14:30:02.072Z"
  },
  {
    "visit": 50,
    "longitude": 120.156306149,
    "latitude": 22.992921180829,
    "name": "安平漁港",
    "date": "2016-06-12T14:30:02.072Z"
  },
  {
    "visit": 50,
    "longitude": 120.18758909,
    "latitude": 22.991338212222,
    "name": "國立台南生活美學館(演藝廳)",
    "date": "2016-06-12T14:30:02.072Z"
  },
  {
    "visit": 51,
    "longitude": 120.1862869,
    "latitude": 22.9779606,
    "name": "是吉祥火鍋",
    "date": "2016-06-12T14:30:02.072Z"
  },
  {
    "visit": 52,
    "longitude": 120.23419761569,
    "latitude": 22.995175816549,
    "name": "王品台塑牛排台南中華東店",
    "date": "2016-06-12T14:30:02.072Z"
  },
  {
    "visit": 52,
    "longitude": 120.22334,
    "latitude": 22.97478,
    "name": "伊豆京風料理",
    "date": "2016-06-12T14:30:02.072Z"
  },
  {
    "visit": 52,
    "longitude": 120.23348098632,
    "latitude": 22.990896678551,
    "name": "台南南紡夢時代威秀影城 Gold Class頂級影廳",
    "date": "2016-06-12T14:30:02.072Z"
  },
  {
    "visit": 52,
    "longitude": 120.20517827393,
    "latitude": 22.982567423057,
    "name": "懷舊小棧 - 五妃廟口豆腐冰",
    "date": "2016-06-12T14:30:02.072Z"
  },
  {
    "visit": 53,
    "longitude": 120.22367643468,
    "latitude": 22.980259029458,
    "name": "薄多義bite 2 Eat台南祟學店",
    "date": "2016-06-12T14:30:02.072Z"
  },
  {
    "visit": 54,
    "longitude": 120.21836,
    "latitude": 22.99595,
    "name": "陶板屋 台南勝利店",
    "date": "2016-06-12T14:30:02.072Z"
  },
  {
    "visit": 54,
    "longitude": 120.19787731124,
    "latitude": 22.99706188423,
    "name": "水仙宮市場",
    "date": "2016-06-12T14:30:02.072Z"
  },
  {
    "visit": 54,
    "longitude": 120.19918,
    "latitude": 22.99783,
    "name": "永樂燒肉飯",
    "date": "2016-06-12T14:30:02.072Z"
  },
  {
    "visit": 56,
    "longitude": 120.19768239964,
    "latitude": 22.993561897255,
    "name": "邱家傳統小吃小卷米粉",
    "date": "2016-06-12T14:30:02.072Z"
  },
  {
    "visit": 57,
    "longitude": 120.20722222222,
    "latitude": 22.983888888889,
    "name": "National University of Tainan",
    "date": "2016-06-12T14:30:02.072Z"
  },
  {
    "visit": 58,
    "longitude": 120.20983574071,
    "latitude": 22.97075290473,
    "name": "台南殯儀館",
    "date": "2016-06-12T14:30:02.072Z"
  },
  {
    "visit": 58,
    "longitude": 120.20515438244,
    "latitude": 22.99002244605,
    "name": "保哥黑輪",
    "date": "2016-06-12T14:30:02.072Z"
  },
  {
    "visit": 58,
    "longitude": 120.18932,
    "latitude": 22.99203,
    "name": "多一點咖啡館-台南美學館-品牌特許授權店",
    "date": "2016-06-12T14:30:02.072Z"
  },
  {
    "visit": 61,
    "longitude": 120.24300606489,
    "latitude": 23.044154403478,
    "name": "桂田酒店國際宴會廳",
    "date": "2016-06-12T14:30:02.072Z"
  },
  {
    "visit": 62,
    "longitude": 120.18717,
    "latitude": 22.98791,
    "name": "家樂福台南安平店",
    "date": "2016-06-12T14:30:02.072Z"
  },
  {
    "visit": 62,
    "longitude": 120.19907697497,
    "latitude": 22.987889801147,
    "name": "台南晶英酒店 Robin's Grill•teppan•lounge",
    "date": "2016-06-12T14:30:02.072Z"
  },
  {
    "visit": 62,
    "longitude": 120.20705,
    "latitude": 22.99271,
    "name": "OA Studio",
    "date": "2016-06-12T14:30:02.072Z"
  },
  {
    "visit": 62,
    "longitude": 120.21526,
    "latitude": 22.98879,
    "name": "毛丼 丼飯專門店",
    "date": "2016-06-12T14:30:02.072Z"
  },
  {
    "visit": 63,
    "longitude": 120.0880797534,
    "latitude": 23.210773428785,
    "name": "將軍漁港",
    "date": "2016-06-12T14:30:02.072Z"
  },
  {
    "visit": 66,
    "longitude": 120.19726951584,
    "latitude": 22.994355840866,
    "name": "蜷尾家 甘味处。。。散步甜食",
    "date": "2016-06-12T14:30:02.072Z"
  },
  {
    "visit": 67,
    "longitude": 120.161134,
    "latitude": 23.003993,
    "name": "臺南安平老街",
    "date": "2016-06-12T14:30:02.072Z"
  },
  {
    "visit": 67,
    "longitude": 120.20813,
    "latitude": 23.0002299,
    "name": "Red Wolf Taven LIVe Music PUB",
    "date": "2016-06-12T14:30:02.072Z"
  },
  {
    "visit": 68,
    "longitude": 120.23323059082,
    "latitude": 22.990839004517,
    "name": "牛角-南紡夢時代",
    "date": "2016-06-12T14:30:02.072Z"
  },
  {
    "visit": 68,
    "longitude": 120.2100688535,
    "latitude": 22.995789099976,
    "name": "Focus時尚流行館",
    "date": "2016-06-12T14:30:02.072Z"
  },
  {
    "visit": 70,
    "longitude": 120.21808780545,
    "latitude": 23.001831011744,
    "name": "成大醫院門診大樓",
    "date": "2016-06-12T14:30:02.072Z"
  },
  {
    "visit": 71,
    "longitude": 120.20315,
    "latitude": 22.99505,
    "name": "台南阿美飯店",
    "date": "2016-06-12T14:30:02.072Z"
  },
  {
    "visit": 74,
    "longitude": 120.1750225698,
    "latitude": 22.988219089422,
    "name": "東東宴會式場",
    "date": "2016-06-12T14:30:02.072Z"
  },
  {
    "visit": 74,
    "longitude": 120.19890261424,
    "latitude": 22.997467676134,
    "name": "台南永樂市場",
    "date": "2016-06-12T14:30:02.072Z"
  },
  {
    "visit": 78,
    "longitude": 120.20195563603,
    "latitude": 23.002995059302,
    "name": "夏慕尼公園店",
    "date": "2016-06-12T14:30:02.072Z"
  },
  {
    "visit": 80,
    "longitude": 120.20669,
    "latitude": 23.01232,
    "name": "千喜火鍋館",
    "date": "2016-06-12T14:30:02.072Z"
  },
  {
    "visit": 81,
    "longitude": 120.1680442,
    "latitude": 22.9865629,
    "name": "In STYLE hair studio",
    "date": "2016-06-12T14:30:02.072Z"
  },
  {
    "visit": 81,
    "longitude": 120.19973722365,
    "latitude": 22.99222546,
    "name": "雙全紅茶",
    "date": "2016-06-12T14:30:02.072Z"
  },
  {
    "visit": 82,
    "longitude": 120.19794,
    "latitude": 22.98834,
    "name": "錢櫃KTV台南店",
    "date": "2016-06-12T14:30:02.072Z"
  },
  {
    "visit": 82,
    "longitude": 120.200817,
    "latitude": 22.981624,
    "name": "國立臺南家齊女子高級中學",
    "date": "2016-06-12T14:30:02.072Z"
  },
  {
    "visit": 84,
    "longitude": 120.16485277778,
    "latitude": 22.993477777778,
    "name": "Anping District",
    "date": "2016-06-12T14:30:02.072Z"
  },
  {
    "visit": 86,
    "longitude": 120.19794,
    "latitude": 22.98834,
    "name": "台南錢櫃西門店",
    "date": "2016-06-12T14:30:02.072Z"
  },
  {
    "visit": 86,
    "longitude": 120.2101505,
    "latitude": 22.9957717,
    "name": "卡不里pizza 義式餐廳",
    "date": "2016-06-12T14:30:02.072Z"
  },
  {
    "visit": 86,
    "longitude": 120.2273399,
    "latitude": 22.9591703,
    "name": "金滿座複合式釣蝦場",
    "date": "2016-06-12T14:30:02.072Z"
  },
  {
    "visit": 87,
    "longitude": 120.23349371124,
    "latitude": 22.9917667582,
    "name": "Bellini Pasta Pasta 台南夢時代店",
    "date": "2016-06-12T14:30:02.072Z"
  },
  {
    "visit": 88,
    "longitude": 120.1971893,
    "latitude": 22.9944401,
    "name": "泰成水果店",
    "date": "2016-06-12T14:30:02.072Z"
  },
  {
    "visit": 89,
    "longitude": 120.16729,
    "latitude": 22.99894,
    "name": "安平古堡",
    "date": "2016-06-12T14:30:02.072Z"
  },
  {
    "visit": 93,
    "longitude": 120.08332497859,
    "latitude": 23.218327424711,
    "name": "馬沙溝濱海遊憩區",
    "date": "2016-06-12T14:30:02.072Z"
  },
  {
    "visit": 103,
    "longitude": 120.20281111111,
    "latitude": 22.9975,
    "name": "Fort Provintia",
    "date": "2016-06-12T14:30:02.072Z"
  },
  {
    "visit": 109,
    "longitude": 120.19793,
    "latitude": 22.98777,
    "name": "Tayih Landis Hotel Tainan 台南大億麗緻酒店",
    "date": "2016-06-12T14:30:02.072Z"
  },
  {
    "visit": 110,
    "longitude": 120.16162688932,
    "latitude": 23.00030923355,
    "name": "陳家蚵捲",
    "date": "2016-06-12T14:30:02.072Z"
  },
  {
    "visit": 116,
    "longitude": 120.20878672041,
    "latitude": 23.011660438679,
    "name": "總理餐廳",
    "date": "2016-06-12T14:30:02.072Z"
  },
  {
    "visit": 120,
    "longitude": 120.21281128346,
    "latitude": 22.996978888208,
    "name": "台南火車站",
    "date": "2016-06-12T14:30:02.072Z"
  },
  {
    "visit": 122,
    "longitude": 120.23413,
    "latitude": 22.99545,
    "name": "國賓影城 Ambassador Theatres",
    "date": "2016-06-12T14:30:02.072Z"
  },
  {
    "visit": 124,
    "longitude": 120.24806508478,
    "latitude": 23.183110966778,
    "name": "台南巿麻豆區",
    "date": "2016-06-12T14:30:02.072Z"
  },
  {
    "visit": 132,
    "longitude": 120.21026,
    "latitude": 22.98958,
    "name": "太陽牌冰品",
    "date": "2016-06-12T14:30:02.072Z"
  },
  {
    "visit": 133,
    "longitude": 120.19702,
    "latitude": 22.99833,
    "name": "阿江鱔魚",
    "date": "2016-06-12T14:30:02.072Z"
  },
  {
    "visit": 142,
    "longitude": 120.19935552132,
    "latitude": 22.987762026228,
    "name": "Silks Place Tainan 台南晶英酒店",
    "date": "2016-06-12T14:30:02.072Z"
  },
  {
    "visit": 145,
    "longitude": 120.18669677399,
    "latitude": 23.009581872988,
    "name": "北海ktv",
    "date": "2016-06-12T14:30:02.072Z"
  },
  {
    "visit": 154,
    "longitude": 120.20981575793,
    "latitude": 22.995100521131,
    "name": "新光三越 台南中山店",
    "date": "2016-06-12T14:30:02.072Z"
  },
  {
    "visit": 154,
    "longitude": 120.21429077317,
    "latitude": 22.996495579963,
    "name": "Shangri-La Tainan 香格里拉台南遠東國際大飯店",
    "date": "2016-06-12T14:30:02.072Z"
  },
  {
    "visit": 155,
    "longitude": 120.24263749071,
    "latitude": 23.043689602214,
    "name": "桂田酒店－阿力海百匯自助餐廳",
    "date": "2016-06-12T14:30:02.072Z"
  },
  {
    "visit": 164,
    "longitude": 120.19343913971,
    "latitude": 23.010363926672,
    "name": "Costco 台南店",
    "date": "2016-06-12T14:30:02.072Z"
  },
  {
    "visit": 171,
    "longitude": 120.19885234763,
    "latitude": 22.987538694479,
    "name": "和逸•台南西門館",
    "date": "2016-06-12T14:30:02.072Z"
  },
  {
    "visit": 181,
    "longitude": 120.19821037581,
    "latitude": 22.98739150113,
    "name": "台南新光三越新天地-新光影城",
    "date": "2016-06-12T14:30:02.072Z"
  },
  {
    "visit": 189,
    "longitude": 120.18872419,
    "latitude": 23.0133523,
    "name": "大港國小",
    "date": "2016-06-12T14:30:02.072Z"
  },
  {
    "visit": 208,
    "longitude": 120.21857,
    "latitude": 22.98422,
    "name": "深藍咖啡館",
    "date": "2016-06-12T14:30:02.072Z"
  },
  {
    "visit": 209,
    "longitude": 120.23538767304,
    "latitude": 23.00409872635,
    "name": "石頭日式炭火燒肉",
    "date": "2016-06-12T14:30:02.072Z"
  },
  {
    "visit": 221,
    "longitude": 120.23120798324,
    "latitude": 22.989133118867,
    "name": "老四川巴蜀麻辣燙-台南東寧店",
    "date": "2016-06-12T14:30:02.072Z"
  },
  {
    "visit": 226,
    "longitude": 120.1876511,
    "latitude": 22.9890909,
    "name": "Omaya春川炒雞台南永華店",
    "date": "2016-06-12T14:30:02.072Z"
  },
  {
    "visit": 254,
    "longitude": 120.1948633,
    "latitude": 22.9892868,
    "name": "六千牛肉湯",
    "date": "2016-06-12T14:30:02.072Z"
  },
  {
    "visit": 264,
    "longitude": 120.20618754185,
    "latitude": 22.995549850652,
    "name": "台南大遠百-華納威秀",
    "date": "2016-06-12T14:30:02.072Z"
  },
  {
    "visit": 269,
    "longitude": 120.15633,
    "latitude": 23.00252,
    "name": "安平夕遊出張所",
    "date": "2016-06-12T14:30:02.072Z"
  },
  {
    "visit": 269,
    "longitude": 120.22393634554,
    "latitude": 22.934614922873,
    "name": "台南都會公園-奇美博物館",
    "date": "2016-06-12T14:30:02.072Z"
  },
  {
    "visit": 324,
    "longitude": 120.22155555556,
    "latitude": 22.974833333333,
    "name": "Tainan Municipal Cultural Center",
    "date": "2016-06-12T14:30:02.072Z"
  },
  {
    "visit": 345,
    "longitude": 120.16080528271,
    "latitude": 23.001228038111,
    "name": "台南市安平古堡&老街",
    "date": "2016-06-12T14:30:02.072Z"
  },
  {
    "visit": 358,
    "longitude": 120.14776580047,
    "latitude": 22.992089716739,
    "name": "安平國際遊艇碼頭",
    "date": "2016-06-12T14:30:02.072Z"
  },
  {
    "visit": 401,
    "longitude": 120.23308607346,
    "latitude": 22.990726758622,
    "name": "南紡夢時代-華納影城",
    "date": "2016-06-12T14:30:02.072Z"
  },
  {
    "visit": 507,
    "longitude": 120.19858368,
    "latitude": 22.98767847,
    "name": "稻禾烏龍麵inaka-台南新光三越小西門店",
    "date": "2016-06-12T14:30:02.072Z"
  },
  {
    "visit": 508,
    "longitude": 120.19863961208,
    "latitude": 22.987050210035,
    "name": "新光三越 台南西門店",
    "date": "2016-06-12T14:30:02.072Z"
  },
  {
    "visit": 631,
    "longitude": 120.1978,
    "latitude": 22.9868099,
    "name": "新光影城",
    "date": "2016-06-12T14:30:02.072Z"
  },
  {
    "visit": 649,
    "longitude": 120.23293733967,
    "latitude": 22.99103966379,
    "name": "\"台南南紡\"夢時代購物中心",
    "date": "2016-06-12T14:30:02.072Z"
  },
  {
    "visit": 1277,
    "longitude": 120.2025,
    "latitude": 22.9918055556,
    "name": "Hayashi Department Store",
    "date": "2016-06-12T14:30:02.072Z"
  }
]