[
  {
    "visit": 1,
    "longitude": 120.17125893886,
    "latitude": 22.990979544767,
    "name": "星巴克-永華國平",
    "date": "2016-06-16T14:30:01.592Z"
  },
  {
    "visit": 1,
    "longitude": 120.24048,
    "latitude": 22.98364,
    "name": "半個鍋-個人火烤兩吃鍋物",
    "date": "2016-06-15T14:30:01.660Z"
  },
  {
    "visit": 1,
    "longitude": 120.221138,
    "latitude": 22.9953194,
    "name": "轉角餐廳 Corner Steak House",
    "date": "2016-06-16T14:30:01.592Z"
  },
  {
    "visit": 1,
    "longitude": 120.25371067075,
    "latitude": 22.997219158292,
    "name": "崑山科技大學-I棟",
    "date": "2016-06-16T14:30:01.592Z"
  },
  {
    "visit": 1,
    "longitude": 120.22279,
    "latitude": 22.97962,
    "name": "加州廚房",
    "date": "2016-06-16T14:30:01.592Z"
  },
  {
    "visit": 1,
    "longitude": 120.23061510943,
    "latitude": 22.998940995345,
    "name": "小東路旁一家無名的麵攤",
    "date": "2016-06-15T14:30:01.660Z"
  },
  {
    "visit": 1,
    "longitude": 120.22130284575,
    "latitude": 22.979366799069,
    "name": "天主教德光中學",
    "date": "2016-06-16T14:30:01.592Z"
  },
  {
    "visit": 1,
    "longitude": 120.21405833306,
    "latitude": 22.996547619391,
    "name": "台南香格里拉10樓遠東咖啡廳",
    "date": "2016-06-16T14:30:01.592Z"
  },
  {
    "visit": 1,
    "longitude": 120.21758726512,
    "latitude": 22.996685621924,
    "name": "成功大學-中正堂",
    "date": "2016-06-16T14:30:01.592Z"
  },
  {
    "visit": 1,
    "longitude": 120.19595,
    "latitude": 22.9952,
    "name": "唐寅居",
    "date": "2016-06-16T14:30:01.592Z"
  },
  {
    "visit": 1,
    "longitude": 120.1611151,
    "latitude": 23.000049,
    "name": "安平天后宮",
    "date": "2016-06-16T14:30:01.592Z"
  },
  {
    "visit": 1,
    "longitude": 120.20673511467,
    "latitude": 22.999781843777,
    "name": "台南市天公廟(開基玉皇宮)",
    "date": "2016-06-16T14:30:01.592Z"
  },
  {
    "visit": 1,
    "longitude": 120.1534450108,
    "latitude": 23.000111199536,
    "name": "台南四草濕地（台江國家公園）綠色隧道",
    "date": "2016-06-16T14:30:01.592Z"
  },
  {
    "visit": 1,
    "longitude": 120.23856556511,
    "latitude": 23.03948537297,
    "name": "台南應用科技大學B棟",
    "date": "2016-06-16T14:30:01.592Z"
  },
  {
    "visit": 1,
    "longitude": 120.21573445008,
    "latitude": 23.001581822725,
    "name": "MSGT成功大學綠色魔法學校",
    "date": "2016-06-15T14:30:01.660Z"
  },
  {
    "visit": 1,
    "longitude": 120.17490645118,
    "latitude": 22.998079110914,
    "name": "台南安平周式煆捲",
    "date": "2016-06-16T14:30:01.592Z"
  },
  {
    "visit": 1,
    "longitude": 120.21560359044,
    "latitude": 22.997793962917,
    "name": "NCKU光復校區 成功廳",
    "date": "2016-06-16T14:30:01.592Z"
  },
  {
    "visit": 1,
    "longitude": 120.20451181892,
    "latitude": 22.980124001035,
    "name": "葡萄王葡眾企業-台南會場勞工育樂中心",
    "date": "2016-06-16T14:30:01.592Z"
  },
  {
    "visit": 2,
    "longitude": 120.20207,
    "latitude": 22.99106,
    "name": "花川日式料理",
    "date": "2016-06-16T14:30:01.592Z"
  },
  {
    "visit": 2,
    "longitude": 120.19841,
    "latitude": 22.99398,
    "name": "JJ-W Hotel",
    "date": "2016-06-16T14:30:01.592Z"
  },
  {
    "visit": 2,
    "longitude": 120.19763413239,
    "latitude": 22.993611368859,
    "name": "Chiuanhouse",
    "date": "2016-06-16T14:30:01.592Z"
  },
  {
    "visit": 2,
    "longitude": 120.21058,
    "latitude": 22.99356,
    "name": "深呼吸運動會館",
    "date": "2016-06-16T14:30:01.592Z"
  },
  {
    "visit": 2,
    "longitude": 120.21083,
    "latitude": 22.99715,
    "name": "台南大飯店 Hotel Tainan",
    "date": "2016-06-16T14:30:01.592Z"
  },
  {
    "visit": 2,
    "longitude": 120.22123,
    "latitude": 22.9956299,
    "name": "KAFFE at HOME",
    "date": "2016-06-16T14:30:01.592Z"
  },
  {
    "visit": 2,
    "longitude": 120.2015513192,
    "latitude": 22.996713532721,
    "name": "全臺祀典大天后宮",
    "date": "2016-06-16T14:30:01.592Z"
  },
  {
    "visit": 2,
    "longitude": 120.22136083815,
    "latitude": 22.9740211,
    "name": "德安百貨春水堂",
    "date": "2016-06-16T14:30:01.592Z"
  },
  {
    "visit": 2,
    "longitude": 120.18852694815,
    "latitude": 22.981994586715,
    "name": "春喜燒烤",
    "date": "2016-06-16T14:30:01.592Z"
  },
  {
    "visit": 2,
    "longitude": 120.22100732643,
    "latitude": 22.990755954617,
    "name": "飛饗創意西式料理-旗艦總店",
    "date": "2016-06-16T14:30:01.592Z"
  },
  {
    "visit": 2,
    "longitude": 120.21040653295,
    "latitude": 22.995856220979,
    "name": "focus13F 佐佐義義大利麵",
    "date": "2016-06-16T14:30:01.592Z"
  },
  {
    "visit": 2,
    "longitude": 120.2336752,
    "latitude": 22.9912468,
    "name": "跳舞香水 南紡夢時代",
    "date": "2016-06-16T14:30:01.592Z"
  },
  {
    "visit": 3,
    "longitude": 120.18835036767,
    "latitude": 22.992543174726,
    "name": "台南市移民署",
    "date": "2016-06-16T14:30:01.592Z"
  },
  {
    "visit": 3,
    "longitude": 120.19615299984,
    "latitude": 23.001582749048,
    "name": "Mr.wheat 小麥先生創意料理 - 台南金華店",
    "date": "2016-06-15T14:30:01.660Z"
  },
  {
    "visit": 3,
    "longitude": 120.2217902,
    "latitude": 22.9799581,
    "name": "德光監獄大牢",
    "date": "2016-06-16T14:30:01.592Z"
  },
  {
    "visit": 3,
    "longitude": 120.22857,
    "latitude": 23.00394,
    "name": "千畦種子博物館",
    "date": "2016-06-15T14:30:01.660Z"
  },
  {
    "visit": 3,
    "longitude": 120.2342704,
    "latitude": 22.9965006,
    "name": "世界健身俱樂部（國賓館）",
    "date": "2016-06-15T14:30:01.660Z"
  },
  {
    "visit": 3,
    "longitude": 120.223688,
    "latitude": 22.980319,
    "name": "薄多義bit2eat義大利麵pizza台南崇學",
    "date": "2016-06-16T14:30:01.592Z"
  },
  {
    "visit": 3,
    "longitude": 120.29084134795,
    "latitude": 23.078626211883,
    "name": "新市土地公臭豆腐",
    "date": "2016-06-16T14:30:01.592Z"
  },
  {
    "visit": 3,
    "longitude": 120.24300606489,
    "latitude": 23.044154403478,
    "name": "桂田酒店國際宴會廳",
    "date": "2016-06-16T14:30:01.592Z"
  },
  {
    "visit": 3,
    "longitude": 120.22101,
    "latitude": 22.9951,
    "name": "Noah's ark 諾亞方舟主廚餐廳",
    "date": "2016-06-16T14:30:01.592Z"
  },
  {
    "visit": 3,
    "longitude": 120.18570852685,
    "latitude": 22.998042744245,
    "name": "台南市安平區運河",
    "date": "2016-06-16T14:30:01.592Z"
  },
  {
    "visit": 3,
    "longitude": 120.17265,
    "latitude": 22.99114,
    "name": "Daylight光合箱子",
    "date": "2016-06-16T14:30:01.592Z"
  },
  {
    "visit": 3,
    "longitude": 120.22342,
    "latitude": 22.9935,
    "name": "開普三號店 CAPE CAFE 3",
    "date": "2016-06-16T14:30:01.592Z"
  },
  {
    "visit": 3,
    "longitude": 120.22107832478,
    "latitude": 23.024788077567,
    "name": "Golden Brother's Dormit0ry",
    "date": "2016-06-15T14:30:01.660Z"
  },
  {
    "visit": 3,
    "longitude": 120.2094579,
    "latitude": 22.9956648,
    "name": "南方公園-森菓鯛魚燒霜淇淋",
    "date": "2016-06-16T14:30:01.592Z"
  },
  {
    "visit": 3,
    "longitude": 120.18712944447,
    "latitude": 22.997735053692,
    "name": "星巴克 Starbucks 府中門市",
    "date": "2016-06-16T14:30:01.592Z"
  },
  {
    "visit": 3,
    "longitude": 120.1971893,
    "latitude": 22.9944401,
    "name": "泰成水果店",
    "date": "2016-06-16T14:30:01.592Z"
  },
  {
    "visit": 3,
    "longitude": 120.2797001206,
    "latitude": 23.095919773004,
    "name": "聯華電子",
    "date": "2016-06-15T14:30:01.660Z"
  },
  {
    "visit": 3,
    "longitude": 120.20493,
    "latitude": 22.98466,
    "name": "I - Mita 愛米塔。早午餐。輕食。蜜塔。",
    "date": "2016-06-16T14:30:01.592Z"
  },
  {
    "visit": 3,
    "longitude": 120.2661,
    "latitude": 23.0133,
    "name": "台南市永康區大灣",
    "date": "2016-06-15T14:30:01.660Z"
  },
  {
    "visit": 3,
    "longitude": 120.22675735848,
    "latitude": 22.969023773846,
    "name": "台南市立醫院急診室",
    "date": "2016-06-15T14:30:01.660Z"
  },
  {
    "visit": 4,
    "longitude": 120.19780200611,
    "latitude": 22.988245991803,
    "name": "台南西門錢櫃KTV",
    "date": "2016-06-16T14:30:01.592Z"
  },
  {
    "visit": 4,
    "longitude": 120.23961050123,
    "latitude": 22.989735527308,
    "name": "慈幼工商",
    "date": "2016-06-16T14:30:01.592Z"
  },
  {
    "visit": 4,
    "longitude": 120.22334259435,
    "latitude": 23.004627826304,
    "name": "一二三冰城",
    "date": "2016-06-16T14:30:01.592Z"
  },
  {
    "visit": 4,
    "longitude": 120.2041,
    "latitude": 22.99374,
    "name": "台南天壇－天公廟",
    "date": "2016-06-15T14:30:01.660Z"
  },
  {
    "visit": 4,
    "longitude": 120.25500522743,
    "latitude": 23.036751438841,
    "name": "永康駕訓班",
    "date": "2016-06-15T14:30:01.660Z"
  },
  {
    "visit": 4,
    "longitude": 120.235154067,
    "latitude": 23.003941326251,
    "name": "爭鮮迴轉寿司 Sushi Express 中華店",
    "date": "2016-06-15T14:30:01.660Z"
  },
  {
    "visit": 4,
    "longitude": 120.17461,
    "latitude": 22.99818,
    "name": "台南周氏蝦捲總店",
    "date": "2016-06-16T14:30:01.592Z"
  },
  {
    "visit": 4,
    "longitude": 120.20828191015,
    "latitude": 23.000280946257,
    "name": "紅狼美式酒吧",
    "date": "2016-06-15T14:30:01.660Z"
  },
  {
    "visit": 4,
    "longitude": 120.20546,
    "latitude": 22.98454,
    "name": "波哥三店（南寧街）",
    "date": "2016-06-16T14:30:01.592Z"
  },
  {
    "visit": 4,
    "longitude": 120.22837910785,
    "latitude": 23.032797934538,
    "name": "定食8 - 永康家樂福店",
    "date": "2016-06-15T14:30:01.660Z"
  },
  {
    "visit": 4,
    "longitude": 120.21846061554,
    "latitude": 22.995345825567,
    "name": "鬥牛士二鍋成大店",
    "date": "2016-06-16T14:30:01.592Z"
  },
  {
    "visit": 4,
    "longitude": 120.21313,
    "latitude": 22.99242,
    "name": "臺南知事官邸",
    "date": "2016-06-16T14:30:01.592Z"
  },
  {
    "visit": 4,
    "longitude": 120.18707558682,
    "latitude": 22.98875858967,
    "name": "Friday's",
    "date": "2016-06-16T14:30:01.592Z"
  },
  {
    "visit": 4,
    "longitude": 120.18668,
    "latitude": 23.00243,
    "name": "宜得利家居",
    "date": "2016-06-15T14:30:01.660Z"
  },
  {
    "visit": 4,
    "longitude": 120.22091,
    "latitude": 22.97639,
    "name": "老婆的菜",
    "date": "2016-06-15T14:30:01.660Z"
  },
  {
    "visit": 4,
    "longitude": 120.22317,
    "latitude": 22.98084,
    "name": "準媽媽婦嬰用品專賣店(直營系統)",
    "date": "2016-06-16T14:30:01.592Z"
  },
  {
    "visit": 5,
    "longitude": 120.2101593,
    "latitude": 22.9956303,
    "name": "Focus 11F 二鍋(壽喜燒)",
    "date": "2016-06-16T14:30:01.592Z"
  },
  {
    "visit": 5,
    "longitude": 120.28209480738,
    "latitude": 23.101493306086,
    "name": "南科管理局",
    "date": "2016-06-15T14:30:01.660Z"
  },
  {
    "visit": 5,
    "longitude": 120.20207,
    "latitude": 22.99674,
    "name": "台南武廟",
    "date": "2016-06-16T14:30:01.592Z"
  },
  {
    "visit": 5,
    "longitude": 120.22650837005,
    "latitude": 23.031447811711,
    "name": "HONDA永康店",
    "date": "2016-06-15T14:30:01.660Z"
  },
  {
    "visit": 5,
    "longitude": 120.224,
    "latitude": 22.98093,
    "name": "Oilily Cafe",
    "date": "2016-06-15T14:30:01.660Z"
  },
  {
    "visit": 5,
    "longitude": 120.19656153963,
    "latitude": 22.994845396489,
    "name": "Mumu白姆森林（美、義料理）",
    "date": "2016-06-16T14:30:01.592Z"
  },
  {
    "visit": 5,
    "longitude": 120.22693805104,
    "latitude": 23.002116403526,
    "name": "永林牛肉火鍋 台灣台南美食綜合料理 Tainan, Taiwan Local Delicious food: Yonlin Restaurant",
    "date": "2016-06-16T14:30:01.592Z"
  },
  {
    "visit": 5,
    "longitude": 120.21219499254,
    "latitude": 22.990139292042,
    "name": "Free will",
    "date": "2016-06-16T14:30:01.592Z"
  },
  {
    "visit": 5,
    "longitude": 120.21793,
    "latitude": 22.9917,
    "name": "波哥茶飲(台南勝利店)",
    "date": "2016-06-16T14:30:01.592Z"
  },
  {
    "visit": 5,
    "longitude": 120.18737,
    "latitude": 22.99277,
    "name": "爭鮮迴轉壽司",
    "date": "2016-06-16T14:30:01.592Z"
  },
  {
    "visit": 5,
    "longitude": 120.20994534264,
    "latitude": 22.99571851868,
    "name": "Focus百貨WorldGym",
    "date": "2016-06-16T14:30:01.592Z"
  },
  {
    "visit": 5,
    "longitude": 120.22122417549,
    "latitude": 22.973993912762,
    "name": "健身工廠（德安廠）",
    "date": "2016-06-15T14:30:01.660Z"
  },
  {
    "visit": 6,
    "longitude": 120.2288409422,
    "latitude": 23.033803735101,
    "name": "伊豆日本料理",
    "date": "2016-06-16T14:30:01.592Z"
  },
  {
    "visit": 6,
    "longitude": 120.22355826271,
    "latitude": 22.999363759867,
    "name": "成大自強校區",
    "date": "2016-06-16T14:30:01.592Z"
  },
  {
    "visit": 6,
    "longitude": 120.17913393594,
    "latitude": 22.997524545472,
    "name": "南山人壽台南分公司",
    "date": "2016-06-16T14:30:01.592Z"
  },
  {
    "visit": 6,
    "longitude": 120.20767115689,
    "latitude": 22.98325435023,
    "name": "台南大學操場",
    "date": "2016-06-16T14:30:01.592Z"
  },
  {
    "visit": 6,
    "longitude": 120.19768239964,
    "latitude": 22.993561897255,
    "name": "邱家傳統小吃小卷米粉",
    "date": "2016-06-16T14:30:01.592Z"
  },
  {
    "visit": 6,
    "longitude": 120.24806508478,
    "latitude": 23.183110966778,
    "name": "台南巿麻豆區",
    "date": "2016-06-15T14:30:01.660Z"
  },
  {
    "visit": 6,
    "longitude": 120.2050849974,
    "latitude": 22.996828678508,
    "name": "美樂蒂中成店VIP包廂",
    "date": "2016-06-16T14:30:01.592Z"
  },
  {
    "visit": 6,
    "longitude": 120.22109105269,
    "latitude": 22.982336017913,
    "name": "銀座日式料理",
    "date": "2016-06-16T14:30:01.592Z"
  },
  {
    "visit": 6,
    "longitude": 120.1879653,
    "latitude": 23.0077551,
    "name": "天成複合式釣蝦埸",
    "date": "2016-06-16T14:30:01.592Z"
  },
  {
    "visit": 6,
    "longitude": 120.18773261116,
    "latitude": 23.007500481868,
    "name": "天成複合式主題館",
    "date": "2016-06-16T14:30:01.592Z"
  },
  {
    "visit": 7,
    "longitude": 120.25833909,
    "latitude": 23.03247518,
    "name": "永康 龍潭",
    "date": "2016-06-15T14:30:01.660Z"
  },
  {
    "visit": 7,
    "longitude": 120.1729612872,
    "latitude": 22.998086687755,
    "name": "臺南安平",
    "date": "2016-06-16T14:30:01.592Z"
  },
  {
    "visit": 7,
    "longitude": 120.22115555556,
    "latitude": 22.991069444444,
    "name": "臺南市私立長榮女子高級中學",
    "date": "2016-06-16T14:30:01.592Z"
  },
  {
    "visit": 7,
    "longitude": 120.23455,
    "latitude": 23.03875,
    "name": "Starbucks Coffee-台南drive Thru",
    "date": "2016-06-16T14:30:01.592Z"
  },
  {
    "visit": 8,
    "longitude": 120.19762277233,
    "latitude": 22.988117458101,
    "name": "台南大億麗緻酒店共同市場歐亞自助餐廳",
    "date": "2016-06-15T14:30:01.660Z"
  },
  {
    "visit": 8,
    "longitude": 120.21113521267,
    "latitude": 22.975482946898,
    "name": "阿輝黑輪",
    "date": "2016-06-16T14:30:01.592Z"
  },
  {
    "visit": 8,
    "longitude": 120.25168441453,
    "latitude": 22.99871999678,
    "name": "異人館咖啡部屋 崑山店",
    "date": "2016-06-15T14:30:01.660Z"
  },
  {
    "visit": 8,
    "longitude": 120.2178192,
    "latitude": 22.9795609,
    "name": "維達都會生活俱樂部 La Vida Health Club",
    "date": "2016-06-16T14:30:01.592Z"
  },
  {
    "visit": 8,
    "longitude": 120.24009,
    "latitude": 23.04136,
    "name": "致穩馬維爾異國餐廳",
    "date": "2016-06-16T14:30:01.592Z"
  },
  {
    "visit": 8,
    "longitude": 120.21175326923,
    "latitude": 22.994279439162,
    "name": "台南市北門路",
    "date": "2016-06-16T14:30:01.592Z"
  },
  {
    "visit": 8,
    "longitude": 120.21016,
    "latitude": 22.9956299,
    "name": "focus 星巴克",
    "date": "2016-06-16T14:30:01.592Z"
  },
  {
    "visit": 8,
    "longitude": 120.22133846938,
    "latitude": 23.021652406151,
    "name": "綠蓋茶•館 台南中華店",
    "date": "2016-06-16T14:30:01.592Z"
  },
  {
    "visit": 8,
    "longitude": 120.19209877667,
    "latitude": 22.987786760748,
    "name": "金華路茶大",
    "date": "2016-06-16T14:30:01.592Z"
  },
  {
    "visit": 9,
    "longitude": 120.19769,
    "latitude": 22.99334,
    "name": "江水號",
    "date": "2016-06-16T14:30:01.592Z"
  },
  {
    "visit": 9,
    "longitude": 120.19637416831,
    "latitude": 22.997658165585,
    "name": "神農街",
    "date": "2016-06-16T14:30:01.592Z"
  },
  {
    "visit": 9,
    "longitude": 120.18606,
    "latitude": 23.00647,
    "name": "星巴克-湖美門市",
    "date": "2016-06-16T14:30:01.592Z"
  },
  {
    "visit": 9,
    "longitude": 120.1873587747,
    "latitude": 23.008733116034,
    "name": "全家樂釣蝦場",
    "date": "2016-06-16T14:30:01.592Z"
  },
  {
    "visit": 9,
    "longitude": 120.21190434854,
    "latitude": 22.994547266202,
    "name": "北門商場",
    "date": "2016-06-16T14:30:01.592Z"
  },
  {
    "visit": 9,
    "longitude": 120.2073,
    "latitude": 22.979,
    "name": "歡喜樓",
    "date": "2016-06-16T14:30:01.592Z"
  },
  {
    "visit": 10,
    "longitude": 120.22234,
    "latitude": 22.9828,
    "name": "築地專售壽司",
    "date": "2016-06-15T14:30:01.660Z"
  },
  {
    "visit": 10,
    "longitude": 120.25358891503,
    "latitude": 23.038462654754,
    "name": "永康火車站 Yongkang Station",
    "date": "2016-06-16T14:30:01.592Z"
  },
  {
    "visit": 10,
    "longitude": 120.23423126272,
    "latitude": 22.995679232043,
    "name": "金礦咖啡",
    "date": "2016-06-15T14:30:01.660Z"
  },
  {
    "visit": 10,
    "longitude": 120.20517827393,
    "latitude": 22.982567423057,
    "name": "懷舊小棧 - 五妃廟口豆腐冰",
    "date": "2016-06-16T14:30:01.592Z"
  },
  {
    "visit": 10,
    "longitude": 120.30165258872,
    "latitude": 23.077691096642,
    "name": "Dartwits Dormitory No.1 Guoji Road Shinsi District Tainan City Taiwan",
    "date": "2016-06-15T14:30:01.660Z"
  },
  {
    "visit": 10,
    "longitude": 120.21331,
    "latitude": 22.9945099,
    "name": "府城騷烤家",
    "date": "2016-06-15T14:30:01.660Z"
  },
  {
    "visit": 10,
    "longitude": 120.2419,
    "latitude": 22.9868099,
    "name": "忠味麵店",
    "date": "2016-06-16T14:30:01.592Z"
  },
  {
    "visit": 10,
    "longitude": 120.22833,
    "latitude": 22.99349,
    "name": "Domo Pann 多麼胖咖啡東興店",
    "date": "2016-06-16T14:30:01.592Z"
  },
  {
    "visit": 10,
    "longitude": 120.18199422583,
    "latitude": 22.992884723416,
    "name": "上原日本料理",
    "date": "2016-06-16T14:30:01.592Z"
  },
  {
    "visit": 11,
    "longitude": 120.19964562025,
    "latitude": 22.992108589983,
    "name": "松仔腳燒烤海產",
    "date": "2016-06-16T14:30:01.592Z"
  },
  {
    "visit": 11,
    "longitude": 120.20041416376,
    "latitude": 22.994201004548,
    "name": "冰鄉",
    "date": "2016-06-16T14:30:01.592Z"
  },
  {
    "visit": 11,
    "longitude": 120.22115,
    "latitude": 22.99579,
    "name": "庫肯花園",
    "date": "2016-06-16T14:30:01.592Z"
  },
  {
    "visit": 11,
    "longitude": 120.20991032661,
    "latitude": 22.991609595046,
    "name": "東菜市場",
    "date": "2016-06-16T14:30:01.592Z"
  },
  {
    "visit": 11,
    "longitude": 120.1862869,
    "latitude": 22.9779606,
    "name": "是吉祥火鍋",
    "date": "2016-06-16T14:30:01.592Z"
  },
  {
    "visit": 11,
    "longitude": 120.3077,
    "latitude": 23.0345,
    "name": "台南-新化老街",
    "date": "2016-06-15T14:30:01.660Z"
  },
  {
    "visit": 11,
    "longitude": 120.24887363544,
    "latitude": 23.190200644471,
    "name": "麻豆監理站",
    "date": "2016-06-15T14:30:01.660Z"
  },
  {
    "visit": 12,
    "longitude": 120.16711,
    "latitude": 22.9977899,
    "name": "安平運河河畔",
    "date": "2016-06-16T14:30:01.592Z"
  },
  {
    "visit": 12,
    "longitude": 120.1976860957,
    "latitude": 22.993864149254,
    "name": "國華街淺草青春新天地",
    "date": "2016-06-16T14:30:01.592Z"
  },
  {
    "visit": 12,
    "longitude": 120.20927,
    "latitude": 22.9957,
    "name": "South Park南方公園",
    "date": "2016-06-15T14:30:01.660Z"
  },
  {
    "visit": 12,
    "longitude": 120.22276917184,
    "latitude": 23.024579240326,
    "name": "南台科技大學星巴克",
    "date": "2016-06-16T14:30:01.592Z"
  },
  {
    "visit": 12,
    "longitude": 120.20972222222,
    "latitude": 22.975555555556,
    "name": "臺南市立體育場",
    "date": "2016-06-16T14:30:01.592Z"
  },
  {
    "visit": 12,
    "longitude": 120.21286576434,
    "latitude": 22.979503641,
    "name": "香圃麵店",
    "date": "2016-06-16T14:30:01.592Z"
  },
  {
    "visit": 12,
    "longitude": 120.20136,
    "latitude": 22.99737,
    "name": "民族路石精臼牛肉湯",
    "date": "2016-06-16T14:30:01.592Z"
  },
  {
    "visit": 12,
    "longitude": 120.2192078,
    "latitude": 23.0021992,
    "name": "成大醫院",
    "date": "2016-06-16T14:30:01.592Z"
  },
  {
    "visit": 12,
    "longitude": 120.20942,
    "latitude": 22.99044,
    "name": "台南東嶽殿",
    "date": "2016-06-15T14:30:01.660Z"
  },
  {
    "visit": 13,
    "longitude": 120.21456,
    "latitude": 22.99382,
    "name": "AJ Burger美式餐廳",
    "date": "2016-06-16T14:30:01.592Z"
  },
  {
    "visit": 13,
    "longitude": 120.20423,
    "latitude": 22.98883,
    "name": "台南愛國婦人會館",
    "date": "2016-06-16T14:30:01.592Z"
  },
  {
    "visit": 13,
    "longitude": 120.19733,
    "latitude": 22.99435,
    "name": "正興街",
    "date": "2016-06-16T14:30:01.592Z"
  },
  {
    "visit": 13,
    "longitude": 120.20710319062,
    "latitude": 23.018908383671,
    "name": "湯村足體養生會館",
    "date": "2016-06-15T14:30:01.660Z"
  },
  {
    "visit": 13,
    "longitude": 120.29007762211,
    "latitude": 23.0681208078,
    "name": "台南新市火車站",
    "date": "2016-06-16T14:30:01.592Z"
  },
  {
    "visit": 13,
    "longitude": 120.14699658705,
    "latitude": 22.989819453777,
    "name": "安平觀夕平台 Anping Sunset Platform",
    "date": "2016-06-15T14:30:01.660Z"
  },
  {
    "visit": 13,
    "longitude": 120.2160109703,
    "latitude": 22.985807155289,
    "name": "Kadoya喫茶店",
    "date": "2016-06-16T14:30:01.592Z"
  },
  {
    "visit": 13,
    "longitude": 120.20538,
    "latitude": 22.99803,
    "name": "異人館-成功店",
    "date": "2016-06-16T14:30:01.592Z"
  },
  {
    "visit": 14,
    "longitude": 120.25188,
    "latitude": 23.02915,
    "name": "聯盈發點心專門店",
    "date": "2016-06-16T14:30:01.592Z"
  },
  {
    "visit": 14,
    "longitude": 120.15774199652,
    "latitude": 22.994065245015,
    "name": "林默娘公園",
    "date": "2016-06-16T14:30:01.592Z"
  },
  {
    "visit": 14,
    "longitude": 120.23709244251,
    "latitude": 23.041052155021,
    "name": "鹽行",
    "date": "2016-06-16T14:30:01.592Z"
  },
  {
    "visit": 14,
    "longitude": 120.19173,
    "latitude": 22.98664,
    "name": "廣東沙茶爐",
    "date": "2016-06-16T14:30:01.592Z"
  },
  {
    "visit": 14,
    "longitude": 120.29516638,
    "latitude": 23.128348572267,
    "name": "大成國小",
    "date": "2016-06-15T14:30:01.660Z"
  },
  {
    "visit": 15,
    "longitude": 120.20878672041,
    "latitude": 23.011660438679,
    "name": "總理餐廳",
    "date": "2016-06-16T14:30:01.592Z"
  },
  {
    "visit": 15,
    "longitude": 120.22853,
    "latitude": 23.03277,
    "name": "爭鮮迴轉壽司-中正(家)",
    "date": "2016-06-15T14:30:01.660Z"
  },
  {
    "visit": 15,
    "longitude": 120.21468602193,
    "latitude": 22.997505891636,
    "name": "國立成功大學光復操場",
    "date": "2016-06-16T14:30:01.592Z"
  },
  {
    "visit": 16,
    "longitude": 120.19821037581,
    "latitude": 22.98739150113,
    "name": "台南新光三越新天地-新光影城",
    "date": "2016-06-16T14:30:01.592Z"
  },
  {
    "visit": 16,
    "longitude": 120.20450857577,
    "latitude": 22.999208820576,
    "name": "鴨母寮菜市場",
    "date": "2016-06-16T14:30:01.592Z"
  },
  {
    "visit": 16,
    "longitude": 120.19913996231,
    "latitude": 23.045362014124,
    "name": "台南市果菜批發市場",
    "date": "2016-06-16T14:30:01.592Z"
  },
  {
    "visit": 16,
    "longitude": 120.161134,
    "latitude": 23.003993,
    "name": "臺南安平老街",
    "date": "2016-06-16T14:30:01.592Z"
  },
  {
    "visit": 17,
    "longitude": 120.21000548442,
    "latitude": 22.995785498373,
    "name": "台南Focus~WorldGym世界健身俱樂部",
    "date": "2016-06-16T14:30:01.592Z"
  },
  {
    "visit": 17,
    "longitude": 120.214758,
    "latitude": 22.9937616,
    "name": "黑工號 嫩仙草",
    "date": "2016-06-16T14:30:01.592Z"
  },
  {
    "visit": 18,
    "longitude": 120.14722428973,
    "latitude": 22.990223774206,
    "name": "觀汐平臺",
    "date": "2016-06-16T14:30:01.592Z"
  },
  {
    "visit": 18,
    "longitude": 120.19392913823,
    "latitude": 22.986546030482,
    "name": "水萍塭公園",
    "date": "2016-06-16T14:30:01.592Z"
  },
  {
    "visit": 18,
    "longitude": 120.20431,
    "latitude": 22.98574,
    "name": "迦南水果店",
    "date": "2016-06-16T14:30:01.592Z"
  },
  {
    "visit": 18,
    "longitude": 120.16162688932,
    "latitude": 23.00030923355,
    "name": "陳家蚵捲",
    "date": "2016-06-16T14:30:01.592Z"
  },
  {
    "visit": 19,
    "longitude": 120.48392960005,
    "latitude": 22.88294067157,
    "name": "旗山",
    "date": "2016-06-15T14:30:01.660Z"
  },
  {
    "visit": 19,
    "longitude": 120.21526,
    "latitude": 22.98879,
    "name": "毛丼 丼飯專門店",
    "date": "2016-06-16T14:30:01.592Z"
  },
  {
    "visit": 19,
    "longitude": 120.1474464754,
    "latitude": 22.997215896129,
    "name": "海之味海產餐廳 - 旗艦店",
    "date": "2016-06-16T14:30:01.592Z"
  },
  {
    "visit": 19,
    "longitude": 120.08332497859,
    "latitude": 23.218327424711,
    "name": "馬沙溝濱海遊憩區",
    "date": "2016-06-16T14:30:01.592Z"
  },
  {
    "visit": 19,
    "longitude": 120.3077311,
    "latitude": 23.0297293,
    "name": "新化天合釣蝦場",
    "date": "2016-06-16T14:30:01.592Z"
  },
  {
    "visit": 19,
    "longitude": 120.22245633682,
    "latitude": 22.978985465789,
    "name": "爭鮮迴轉壽司崇學店",
    "date": "2016-06-16T14:30:01.592Z"
  },
  {
    "visit": 20,
    "longitude": 120.20978819179,
    "latitude": 22.970700860176,
    "name": "臺南市殯葬管理所",
    "date": "2016-06-16T14:30:01.592Z"
  },
  {
    "visit": 21,
    "longitude": 120.20556460294,
    "latitude": 22.985204217647,
    "name": "Tainan City,taiwan ROC",
    "date": "2016-06-16T14:30:01.592Z"
  },
  {
    "visit": 21,
    "longitude": 120.20984411117,
    "latitude": 22.982640796177,
    "name": "東北酸白菜火鍋",
    "date": "2016-06-16T14:30:01.592Z"
  },
  {
    "visit": 21,
    "longitude": 120.18932,
    "latitude": 22.99203,
    "name": "多一點咖啡館-台南美學館-品牌特許授權店",
    "date": "2016-06-16T14:30:01.592Z"
  },
  {
    "visit": 21,
    "longitude": 120.1986886,
    "latitude": 22.9882905,
    "name": "台南晶英酒店",
    "date": "2016-06-16T14:30:01.592Z"
  },
  {
    "visit": 21,
    "longitude": 120.23976673162,
    "latitude": 23.03731658936,
    "name": "台南應用科技大學D大樓",
    "date": "2016-06-15T14:30:01.660Z"
  },
  {
    "visit": 22,
    "longitude": 120.19642,
    "latitude": 22.9906599,
    "name": "宏昇KTV",
    "date": "2016-06-16T14:30:01.592Z"
  },
  {
    "visit": 22,
    "longitude": 120.20705,
    "latitude": 22.99271,
    "name": "OA Studio",
    "date": "2016-06-16T14:30:01.592Z"
  },
  {
    "visit": 24,
    "longitude": 120.20677690043,
    "latitude": 22.985030044598,
    "name": "台南大學文薈樓",
    "date": "2016-06-16T14:30:01.592Z"
  },
  {
    "visit": 24,
    "longitude": 120.21587721507,
    "latitude": 22.997538141459,
    "name": "國立成功大學國際會議廳",
    "date": "2016-06-16T14:30:01.592Z"
  },
  {
    "visit": 24,
    "longitude": 120.19876017363,
    "latitude": 22.986752747775,
    "name": "台南新光三越西門店花月嵐拉麵",
    "date": "2016-06-16T14:30:01.592Z"
  },
  {
    "visit": 24,
    "longitude": 120.19907697497,
    "latitude": 22.987889801147,
    "name": "台南晶英酒店 Robin's Grill•teppan•lounge",
    "date": "2016-06-15T14:30:01.660Z"
  },
  {
    "visit": 25,
    "longitude": 120.21666666667,
    "latitude": 23,
    "name": "National Cheng Kung University",
    "date": "2016-06-16T14:30:01.592Z"
  },
  {
    "visit": 25,
    "longitude": 120.1948633,
    "latitude": 22.9892868,
    "name": "六千牛肉湯",
    "date": "2016-06-16T14:30:01.592Z"
  },
  {
    "visit": 25,
    "longitude": 120.25565253776,
    "latitude": 23.025947282067,
    "name": "永康國小",
    "date": "2016-06-16T14:30:01.592Z"
  },
  {
    "visit": 25,
    "longitude": 120.21722757835,
    "latitude": 22.996498061546,
    "name": "國立成功大學",
    "date": "2016-06-16T14:30:01.592Z"
  },
  {
    "visit": 26,
    "longitude": 120.19200472423,
    "latitude": 22.996777059331,
    "name": "富邦金融中心",
    "date": "2016-06-16T14:30:01.592Z"
  },
  {
    "visit": 26,
    "longitude": 120.2820996,
    "latitude": 23.09880685,
    "name": "星巴克 - 南科門市",
    "date": "2016-06-16T14:30:01.592Z"
  },
  {
    "visit": 26,
    "longitude": 120.19726951584,
    "latitude": 22.994355840866,
    "name": "蜷尾家 甘味处。。。散步甜食",
    "date": "2016-06-16T14:30:01.592Z"
  },
  {
    "visit": 27,
    "longitude": 120.2100688535,
    "latitude": 22.995789099976,
    "name": "Focus時尚流行館",
    "date": "2016-06-16T14:30:01.592Z"
  },
  {
    "visit": 27,
    "longitude": 120.16729,
    "latitude": 22.99894,
    "name": "安平古堡",
    "date": "2016-06-16T14:30:01.592Z"
  },
  {
    "visit": 29,
    "longitude": 120.21818488133,
    "latitude": 23.002205663651,
    "name": "台南成大醫院",
    "date": "2016-06-15T14:30:01.660Z"
  },
  {
    "visit": 29,
    "longitude": 120.20288,
    "latitude": 22.99151,
    "name": "陶阪屋 忠義店",
    "date": "2016-06-16T14:30:01.592Z"
  },
  {
    "visit": 31,
    "longitude": 120.21306038132,
    "latitude": 22.989398637653,
    "name": "Tainan Sin Lau hospital",
    "date": "2016-06-16T14:30:01.592Z"
  },
  {
    "visit": 32,
    "longitude": 120.22749,
    "latitude": 23.01801,
    "name": "碳佐麻里燒肉和食-永康中華店",
    "date": "2016-06-16T14:30:01.592Z"
  },
  {
    "visit": 32,
    "longitude": 120.2389,
    "latitude": 22.98517,
    "name": "異人館（裕平店）",
    "date": "2016-06-16T14:30:01.592Z"
  },
  {
    "visit": 32,
    "longitude": 120.21857,
    "latitude": 22.98422,
    "name": "深藍咖啡館",
    "date": "2016-06-16T14:30:01.592Z"
  },
  {
    "visit": 33,
    "longitude": 120.18658900007,
    "latitude": 22.986884329,
    "name": "輕井澤鍋物 台南店",
    "date": "2016-06-16T14:30:01.592Z"
  },
  {
    "visit": 35,
    "longitude": 120.22082,
    "latitude": 22.97444,
    "name": "台南長榮桂冠酒店",
    "date": "2016-06-16T14:30:01.592Z"
  },
  {
    "visit": 36,
    "longitude": 120.19935552132,
    "latitude": 22.987762026228,
    "name": "Silks Place Tainan 台南晶英酒店",
    "date": "2016-06-16T14:30:01.592Z"
  },
  {
    "visit": 36,
    "longitude": 120.22057687337,
    "latitude": 22.9922225016,
    "name": "韓朝 東寧店",
    "date": "2016-06-16T14:30:01.592Z"
  },
  {
    "visit": 36,
    "longitude": 120.22554715615,
    "latitude": 22.934710000308,
    "name": "台南白宮～奇美博物館",
    "date": "2016-06-15T14:30:01.660Z"
  },
  {
    "visit": 37,
    "longitude": 120.19047941665,
    "latitude": 22.9728283,
    "name": "日新國小",
    "date": "2016-06-16T14:30:01.592Z"
  },
  {
    "visit": 39,
    "longitude": 120.17729218584,
    "latitude": 23.167480133857,
    "name": "北門高中",
    "date": "2016-06-15T14:30:01.660Z"
  },
  {
    "visit": 42,
    "longitude": 120.21429077317,
    "latitude": 22.996495579963,
    "name": "Shangri-La Tainan 香格里拉台南遠東國際大飯店",
    "date": "2016-06-16T14:30:01.592Z"
  },
  {
    "visit": 42,
    "longitude": 120.2075155,
    "latitude": 22.9857107,
    "name": "台南大學",
    "date": "2016-06-16T14:30:01.592Z"
  },
  {
    "visit": 42,
    "longitude": 120.20705,
    "latitude": 22.9882199,
    "name": "台南市臨水夫人媽廟",
    "date": "2016-06-15T14:30:01.660Z"
  },
  {
    "visit": 43,
    "longitude": 120.21281128346,
    "latitude": 22.996978888208,
    "name": "台南火車站",
    "date": "2016-06-16T14:30:01.592Z"
  },
  {
    "visit": 43,
    "longitude": 120.19343913971,
    "latitude": 23.010363926672,
    "name": "Costco 台南店",
    "date": "2016-06-16T14:30:01.592Z"
  },
  {
    "visit": 44,
    "longitude": 120.19998,
    "latitude": 23.00013,
    "name": "丹丹漢堡成功店",
    "date": "2016-06-16T14:30:01.592Z"
  },
  {
    "visit": 48,
    "longitude": 120.26278417842,
    "latitude": 23.018926752813,
    "name": "永大夜巿",
    "date": "2016-06-16T14:30:01.592Z"
  },
  {
    "visit": 50,
    "longitude": 120.18717,
    "latitude": 22.98791,
    "name": "家樂福台南安平店",
    "date": "2016-06-16T14:30:01.592Z"
  },
  {
    "visit": 51,
    "longitude": 120.22994099802,
    "latitude": 22.97211987268,
    "name": "六年甲班 - 崇善店",
    "date": "2016-06-16T14:30:01.592Z"
  },
  {
    "visit": 52,
    "longitude": 120.1680442,
    "latitude": 22.9865629,
    "name": "In STYLE hair studio",
    "date": "2016-06-16T14:30:01.592Z"
  },
  {
    "visit": 53,
    "longitude": 120.20981575793,
    "latitude": 22.995100521131,
    "name": "新光三越 台南中山店",
    "date": "2016-06-16T14:30:01.592Z"
  },
  {
    "visit": 57,
    "longitude": 120.24029,
    "latitude": 23.00332,
    "name": "市立永仁高中",
    "date": "2016-06-16T14:30:01.592Z"
  },
  {
    "visit": 60,
    "longitude": 120.219,
    "latitude": 22.98499,
    "name": "A room",
    "date": "2016-06-15T14:30:01.660Z"
  },
  {
    "visit": 62,
    "longitude": 120.20983574071,
    "latitude": 22.97075290473,
    "name": "台南殯儀館",
    "date": "2016-06-16T14:30:01.592Z"
  },
  {
    "visit": 63,
    "longitude": 120.2025,
    "latitude": 22.9918055556,
    "name": "Hayashi Department Store",
    "date": "2016-06-16T14:30:01.592Z"
  },
  {
    "visit": 70,
    "longitude": 120.2515734194,
    "latitude": 23.03639608295,
    "name": "164 Siwei Street,yongkang District,tainan City,710 Taiwan",
    "date": "2016-06-15T14:30:01.660Z"
  },
  {
    "visit": 86,
    "longitude": 120.20618754185,
    "latitude": 22.995549850652,
    "name": "台南大遠百-華納威秀",
    "date": "2016-06-16T14:30:01.592Z"
  },
  {
    "visit": 89,
    "longitude": 120.22749,
    "latitude": 23.01801,
    "name": "碳佐麻里_永康店",
    "date": "2016-06-16T14:30:01.592Z"
  },
  {
    "visit": 99,
    "longitude": 120.19863961208,
    "latitude": 22.987050210035,
    "name": "新光三越 台南西門店",
    "date": "2016-06-16T14:30:01.592Z"
  },
  {
    "visit": 100,
    "longitude": 120.19858368,
    "latitude": 22.98767847,
    "name": "稻禾烏龍麵inaka-台南新光三越小西門店",
    "date": "2016-06-16T14:30:01.592Z"
  },
  {
    "visit": 101,
    "longitude": 120.21941518344,
    "latitude": 23.002217206316,
    "name": "成大醫院住院大樓",
    "date": "2016-06-16T14:30:01.592Z"
  },
  {
    "visit": 109,
    "longitude": 120.16080528271,
    "latitude": 23.001228038111,
    "name": "台南市安平古堡&老街",
    "date": "2016-06-16T14:30:01.592Z"
  },
  {
    "visit": 111,
    "longitude": 120.23308607346,
    "latitude": 22.990726758622,
    "name": "南紡夢時代-華納影城",
    "date": "2016-06-16T14:30:01.592Z"
  },
  {
    "visit": 122,
    "longitude": 120.19793,
    "latitude": 22.98777,
    "name": "Tayih Landis Hotel Tainan 台南大億麗緻酒店",
    "date": "2016-06-16T14:30:01.592Z"
  },
  {
    "visit": 123,
    "longitude": 120.29576,
    "latitude": 23.07897,
    "name": "新市國小",
    "date": "2016-06-15T14:30:01.660Z"
  },
  {
    "visit": 132,
    "longitude": 120.22585346755,
    "latitude": 22.995572865223,
    "name": "台南市立後甲國民中學",
    "date": "2016-06-15T14:30:01.660Z"
  },
  {
    "visit": 138,
    "longitude": 120.48065,
    "latitude": 22.8883,
    "name": "旗山國小",
    "date": "2016-06-15T14:30:01.660Z"
  },
  {
    "visit": 138,
    "longitude": 120.23538767304,
    "latitude": 23.00409872635,
    "name": "石頭日式炭火燒肉",
    "date": "2016-06-16T14:30:01.592Z"
  },
  {
    "visit": 144,
    "longitude": 120.23413,
    "latitude": 22.99545,
    "name": "國賓影城 Ambassador Theatres",
    "date": "2016-06-16T14:30:01.592Z"
  },
  {
    "visit": 155,
    "longitude": 120.25354,
    "latitude": 23.18356,
    "name": "丹丹漢堡（麻豆店）",
    "date": "2016-06-15T14:30:01.660Z"
  },
  {
    "visit": 158,
    "longitude": 120.1876511,
    "latitude": 22.9890909,
    "name": "Omaya春川炒雞台南永華店",
    "date": "2016-06-16T14:30:01.592Z"
  },
  {
    "visit": 162,
    "longitude": 120.23293733967,
    "latitude": 22.99103966379,
    "name": "\"台南南紡\"夢時代購物中心",
    "date": "2016-06-16T14:30:01.592Z"
  },
  {
    "visit": 176,
    "longitude": 120.21808780545,
    "latitude": 23.001831011744,
    "name": "成大醫院門診大樓",
    "date": "2016-06-16T14:30:01.592Z"
  },
  {
    "visit": 206,
    "longitude": 120.24263749071,
    "latitude": 23.043689602214,
    "name": "桂田酒店－阿力海百匯自助餐廳",
    "date": "2016-06-16T14:30:01.592Z"
  },
  {
    "visit": 404,
    "longitude": 120.1978,
    "latitude": 22.9868099,
    "name": "新光影城",
    "date": "2016-06-16T14:30:01.592Z"
  }
]