[
  {
    "visit": 1,
    "longitude": 120.21228380381,
    "latitude": 22.997908143605,
    "name": "和欣客運總站",
    "date": "2016-06-08T15:00:01.128Z"
  },
  {
    "visit": 1,
    "longitude": 120.20207,
    "latitude": 22.99106,
    "name": "花川日式料理",
    "date": "2016-06-08T15:00:01.128Z"
  },
  {
    "visit": 1,
    "longitude": 120.23061510943,
    "latitude": 22.998940995345,
    "name": "小東路旁一家無名的麵攤",
    "date": "2016-06-08T15:00:01.128Z"
  },
  {
    "visit": 1,
    "longitude": 120.14409455291,
    "latitude": 22.996630960005,
    "name": "安平練車場",
    "date": "2016-06-08T15:00:01.128Z"
  },
  {
    "visit": 1,
    "longitude": 120.22675735848,
    "latitude": 22.969023773846,
    "name": "台南市立醫院急診室",
    "date": "2016-06-08T15:00:01.128Z"
  },
  {
    "visit": 1,
    "longitude": 120.20330585737,
    "latitude": 22.99017825645,
    "name": "台南市立忠義國小",
    "date": "2016-06-08T15:00:01.128Z"
  },
  {
    "visit": 1,
    "longitude": 120.21095,
    "latitude": 22.99473,
    "name": "麻吉的店(複合式餐飲)",
    "date": "2016-06-08T15:00:01.128Z"
  },
  {
    "visit": 1,
    "longitude": 120.2175331,
    "latitude": 22.9844517,
    "name": "World Gym 長榮店",
    "date": "2016-06-08T15:00:01.128Z"
  },
  {
    "visit": 1,
    "longitude": 120.25335,
    "latitude": 23.02252,
    "name": "國立台南大學附屬高級中學",
    "date": "2016-06-08T15:00:01.128Z"
  },
  {
    "visit": 1,
    "longitude": 120.25371067075,
    "latitude": 22.997219158292,
    "name": "崑山科技大學-I棟",
    "date": "2016-06-08T15:00:01.128Z"
  },
  {
    "visit": 1,
    "longitude": 120.19248,
    "latitude": 22.99099,
    "name": "台中鵝肉",
    "date": "2016-06-08T15:00:01.128Z"
  },
  {
    "visit": 1,
    "longitude": 120.16803,
    "latitude": 22.99461,
    "name": "安平秋茂園",
    "date": "2016-06-08T15:00:01.128Z"
  },
  {
    "visit": 1,
    "longitude": 120.26259,
    "latitude": 23.18945,
    "name": "曾文農工",
    "date": "2016-06-08T15:00:01.128Z"
  },
  {
    "visit": 1,
    "longitude": 120.2185917305,
    "latitude": 22.988758918,
    "name": "勝利國小",
    "date": "2016-06-08T15:00:01.128Z"
  },
  {
    "visit": 1,
    "longitude": 120.213888889,
    "latitude": 22.9886111111,
    "name": "Tainan Theological College and Seminary",
    "date": "2016-06-08T15:00:01.128Z"
  },
  {
    "visit": 1,
    "longitude": 120.18655381206,
    "latitude": 22.991333489171,
    "name": "台南市市政府籃球場",
    "date": "2016-06-08T15:00:01.128Z"
  },
  {
    "visit": 2,
    "longitude": 120.22082,
    "latitude": 22.97444,
    "name": "長榮桂冠2樓吃遍天下",
    "date": "2016-06-08T15:00:01.128Z"
  },
  {
    "visit": 2,
    "longitude": 120.19768239964,
    "latitude": 22.993561897255,
    "name": "邱家傳統小吃小卷米粉",
    "date": "2016-06-08T15:00:01.128Z"
  },
  {
    "visit": 2,
    "longitude": 120.19763413239,
    "latitude": 22.993611368859,
    "name": "Chiuanhouse",
    "date": "2016-06-08T15:00:01.128Z"
  },
  {
    "visit": 2,
    "longitude": 120.18627,
    "latitude": 22.99187,
    "name": "台南市社會福利綜合大樓",
    "date": "2016-06-08T15:00:01.128Z"
  },
  {
    "visit": 2,
    "longitude": 120.29476,
    "latitude": 23.07503,
    "name": "小桔子",
    "date": "2016-06-08T15:00:01.128Z"
  },
  {
    "visit": 2,
    "longitude": 120.22276917184,
    "latitude": 23.024579240326,
    "name": "南台科技大學星巴克",
    "date": "2016-06-08T15:00:01.128Z"
  },
  {
    "visit": 2,
    "longitude": 120.19152027,
    "latitude": 22.981854910916,
    "name": "85度c咖啡蛋糕烘焙專賣店",
    "date": "2016-06-08T15:00:01.128Z"
  },
  {
    "visit": 2,
    "longitude": 120.22966,
    "latitude": 22.99005,
    "name": "新都巷日本料理",
    "date": "2016-06-08T15:00:01.128Z"
  },
  {
    "visit": 2,
    "longitude": 120.08330892488,
    "latitude": 23.218290256758,
    "name": "馬沙溝海水浴場 Masago Beach",
    "date": "2016-06-08T15:00:01.128Z"
  },
  {
    "visit": 2,
    "longitude": 120.19762277233,
    "latitude": 22.988117458101,
    "name": "台南大億麗緻酒店共同市場歐亞自助餐廳",
    "date": "2016-06-08T15:00:01.128Z"
  },
  {
    "visit": 2,
    "longitude": 120.22685895897,
    "latitude": 22.998394782262,
    "name": "夫妻肺片-台南東和店",
    "date": "2016-06-08T15:00:01.128Z"
  },
  {
    "visit": 2,
    "longitude": 120.21219499254,
    "latitude": 22.990139292042,
    "name": "Free will",
    "date": "2016-06-08T15:00:01.128Z"
  },
  {
    "visit": 2,
    "longitude": 120.2020721,
    "latitude": 23.0013294,
    "name": "立人國小",
    "date": "2016-06-08T15:00:01.128Z"
  },
  {
    "visit": 2,
    "longitude": 120.2338603203,
    "latitude": 23.008533313622,
    "name": "MOS摩斯漢堡永康中華店",
    "date": "2016-06-08T15:00:01.128Z"
  },
  {
    "visit": 2,
    "longitude": 120.20989,
    "latitude": 22.99545,
    "name": "DAZZLING Cafe Blueberry (台南新光三越中山店二樓)",
    "date": "2016-06-08T15:00:01.128Z"
  },
  {
    "visit": 2,
    "longitude": 120.2063269,
    "latitude": 22.989597,
    "name": "台南府中街孔廟魅力商圈-2元黑輪",
    "date": "2016-06-08T15:00:01.128Z"
  },
  {
    "visit": 2,
    "longitude": 120.1596677562,
    "latitude": 23.003335876822,
    "name": "安平樹屋",
    "date": "2016-06-08T15:00:01.128Z"
  },
  {
    "visit": 2,
    "longitude": 120.20546,
    "latitude": 22.98454,
    "name": "波哥三店（南寧街）",
    "date": "2016-06-08T15:00:01.128Z"
  },
  {
    "visit": 3,
    "longitude": 120.24300606489,
    "latitude": 23.044154403478,
    "name": "桂田酒店國際宴會廳",
    "date": "2016-06-08T15:00:01.128Z"
  },
  {
    "visit": 3,
    "longitude": 120.19726951584,
    "latitude": 22.994355840866,
    "name": "蜷尾家 甘味处。。。散步甜食",
    "date": "2016-06-08T15:00:01.128Z"
  },
  {
    "visit": 3,
    "longitude": 120.21998743797,
    "latitude": 22.998208693738,
    "name": "國立成功大學成功校區",
    "date": "2016-06-08T15:00:01.128Z"
  },
  {
    "visit": 3,
    "longitude": 120.19874883982,
    "latitude": 22.98597122174,
    "name": "南英商工",
    "date": "2016-06-08T15:00:01.128Z"
  },
  {
    "visit": 3,
    "longitude": 120.22739,
    "latitude": 22.99046,
    "name": "多那之咖啡蛋糕烘焙台南東寧店",
    "date": "2016-06-08T15:00:01.128Z"
  },
  {
    "visit": 3,
    "longitude": 120.24859627618,
    "latitude": 23.184505463519,
    "name": "林媽媽鍋燒意麵",
    "date": "2016-06-08T15:00:01.128Z"
  },
  {
    "visit": 3,
    "longitude": 120.20792,
    "latitude": 23.0147,
    "name": "　花園釣蝦場",
    "date": "2016-06-08T15:00:01.128Z"
  },
  {
    "visit": 3,
    "longitude": 120.2041,
    "latitude": 22.99374,
    "name": "台南天壇－天公廟",
    "date": "2016-06-08T15:00:01.128Z"
  },
  {
    "visit": 3,
    "longitude": 120.2625961,
    "latitude": 23.1894474,
    "name": "國立曾文高級農工職業學校",
    "date": "2016-06-08T15:00:01.128Z"
  },
  {
    "visit": 3,
    "longitude": 120.23336128088,
    "latitude": 22.993401503218,
    "name": "Golden Bowling 黃金保齡球場",
    "date": "2016-06-08T15:00:01.128Z"
  },
  {
    "visit": 3,
    "longitude": 120.17935,
    "latitude": 22.99326,
    "name": "綠色空間",
    "date": "2016-06-08T15:00:01.128Z"
  },
  {
    "visit": 4,
    "longitude": 120.21175326923,
    "latitude": 22.994279439162,
    "name": "台南市北門路",
    "date": "2016-06-08T15:00:01.128Z"
  },
  {
    "visit": 4,
    "longitude": 120.28209480738,
    "latitude": 23.101493306086,
    "name": "南科管理局",
    "date": "2016-06-08T15:00:01.128Z"
  },
  {
    "visit": 4,
    "longitude": 120.2661,
    "latitude": 23.0133,
    "name": "台南市永康區大灣",
    "date": "2016-06-08T15:00:01.128Z"
  },
  {
    "visit": 4,
    "longitude": 120.20767115689,
    "latitude": 22.98325435023,
    "name": "台南大學操場",
    "date": "2016-06-08T15:00:01.128Z"
  },
  {
    "visit": 4,
    "longitude": 120.25086971588,
    "latitude": 23.03161715053,
    "name": "台南永康歐洲世界",
    "date": "2016-06-08T15:00:01.128Z"
  },
  {
    "visit": 4,
    "longitude": 120.20518002266,
    "latitude": 22.996877367139,
    "name": "台南美樂地KTV中成店",
    "date": "2016-06-08T15:00:01.128Z"
  },
  {
    "visit": 4,
    "longitude": 120.16819972336,
    "latitude": 22.994654958473,
    "name": "台南市安平圖書館",
    "date": "2016-06-08T15:00:01.128Z"
  },
  {
    "visit": 4,
    "longitude": 120.2217,
    "latitude": 22.99586,
    "name": "Starbucks 長榮門市",
    "date": "2016-06-08T15:00:01.128Z"
  },
  {
    "visit": 4,
    "longitude": 120.22693805104,
    "latitude": 23.002116403526,
    "name": "永林牛肉火鍋 台灣台南美食綜合料理 Tainan, Taiwan Local Delicious food: Yonlin Restaurant",
    "date": "2016-06-08T15:00:01.128Z"
  },
  {
    "visit": 4,
    "longitude": 120.20441911806,
    "latitude": 22.979987647183,
    "name": "台南市勞工育樂中心",
    "date": "2016-06-08T15:00:01.128Z"
  },
  {
    "visit": 5,
    "longitude": 120.25565253776,
    "latitude": 23.025947282067,
    "name": "永康國小",
    "date": "2016-06-08T15:00:01.128Z"
  },
  {
    "visit": 5,
    "longitude": 120.21881,
    "latitude": 22.97964,
    "name": "Malibu泰式料理餐廳",
    "date": "2016-06-08T15:00:01.128Z"
  },
  {
    "visit": 5,
    "longitude": 120.22091,
    "latitude": 22.97639,
    "name": "老婆的菜",
    "date": "2016-06-08T15:00:01.128Z"
  },
  {
    "visit": 5,
    "longitude": 120.2214724,
    "latitude": 23.0082525,
    "name": "開元虱目魚",
    "date": "2016-06-08T15:00:01.128Z"
  },
  {
    "visit": 5,
    "longitude": 120.24009,
    "latitude": 23.04136,
    "name": "致穩馬維爾異國餐廳",
    "date": "2016-06-08T15:00:01.128Z"
  },
  {
    "visit": 5,
    "longitude": 120.19841,
    "latitude": 22.99398,
    "name": "JJ-W Hotel",
    "date": "2016-06-08T15:00:01.128Z"
  },
  {
    "visit": 5,
    "longitude": 120.21052887689,
    "latitude": 22.994172996672,
    "name": "萬昌起義",
    "date": "2016-06-08T15:00:01.128Z"
  },
  {
    "visit": 5,
    "longitude": 120.19615299984,
    "latitude": 23.001582749048,
    "name": "Mr.wheat 小麥先生創意料理 - 台南金華店",
    "date": "2016-06-08T15:00:01.128Z"
  },
  {
    "visit": 5,
    "longitude": 120.22837910785,
    "latitude": 23.032797934538,
    "name": "定食8 - 永康家樂福店",
    "date": "2016-06-08T15:00:01.128Z"
  },
  {
    "visit": 5,
    "longitude": 120.17265,
    "latitude": 22.99114,
    "name": "Daylight光合箱子",
    "date": "2016-06-08T15:00:01.128Z"
  },
  {
    "visit": 5,
    "longitude": 120.22853,
    "latitude": 23.03277,
    "name": "家樂福",
    "date": "2016-06-08T15:00:01.128Z"
  },
  {
    "visit": 5,
    "longitude": 120.29576,
    "latitude": 23.07897,
    "name": "新市國小",
    "date": "2016-06-08T15:00:01.128Z"
  },
  {
    "visit": 5,
    "longitude": 120.1864651,
    "latitude": 22.9985868,
    "name": "台南大舞廳",
    "date": "2016-06-08T15:00:01.128Z"
  },
  {
    "visit": 6,
    "longitude": 120.22357,
    "latitude": 22.97369,
    "name": "有間冰舖 崇明店",
    "date": "2016-06-08T15:00:01.128Z"
  },
  {
    "visit": 6,
    "longitude": 120.22918,
    "latitude": 23.0002299,
    "name": "台南極鮮火鍋",
    "date": "2016-06-08T15:00:01.128Z"
  },
  {
    "visit": 6,
    "longitude": 120.224,
    "latitude": 22.98093,
    "name": "Oilily Cafe",
    "date": "2016-06-08T15:00:01.128Z"
  },
  {
    "visit": 6,
    "longitude": 120.21573445008,
    "latitude": 23.001581822725,
    "name": "MSGT成功大學綠色魔法學校",
    "date": "2016-06-08T15:00:01.128Z"
  },
  {
    "visit": 6,
    "longitude": 120.28198967959,
    "latitude": 23.098611597355,
    "name": "Park17",
    "date": "2016-06-08T15:00:01.128Z"
  },
  {
    "visit": 6,
    "longitude": 120.22100732643,
    "latitude": 22.990755954617,
    "name": "飛饗創意西式料理-旗艦總店",
    "date": "2016-06-08T15:00:01.128Z"
  },
  {
    "visit": 6,
    "longitude": 120.18712944447,
    "latitude": 22.997735053692,
    "name": "星巴克 Starbucks 府中門市",
    "date": "2016-06-08T15:00:01.128Z"
  },
  {
    "visit": 6,
    "longitude": 120.30165258872,
    "latitude": 23.077691096642,
    "name": "Dartwits Dormitory No.1 Guoji Road Shinsi District Tainan City Taiwan",
    "date": "2016-06-08T15:00:01.128Z"
  },
  {
    "visit": 6,
    "longitude": 120.21150978657,
    "latitude": 22.989533475104,
    "name": "Map北門形象館",
    "date": "2016-06-08T15:00:01.128Z"
  },
  {
    "visit": 6,
    "longitude": 120.16623,
    "latitude": 22.99962,
    "name": "石門國小",
    "date": "2016-06-08T15:00:01.128Z"
  },
  {
    "visit": 6,
    "longitude": 120.48328,
    "latitude": 22.88069,
    "name": "行政院衛生署旗山醫院",
    "date": "2016-06-08T15:00:01.128Z"
  },
  {
    "visit": 7,
    "longitude": 120.20978819179,
    "latitude": 22.970700860176,
    "name": "臺南市殯葬管理所",
    "date": "2016-06-08T15:00:01.128Z"
  },
  {
    "visit": 7,
    "longitude": 120.19973722365,
    "latitude": 22.99222546,
    "name": "雙全紅茶",
    "date": "2016-06-08T15:00:01.128Z"
  },
  {
    "visit": 7,
    "longitude": 120.21200062511,
    "latitude": 22.99715067333,
    "name": "臺南火車站",
    "date": "2016-06-08T15:00:01.128Z"
  },
  {
    "visit": 7,
    "longitude": 120.20450857577,
    "latitude": 22.999208820576,
    "name": "鴨母寮菜市場",
    "date": "2016-06-08T15:00:01.128Z"
  },
  {
    "visit": 7,
    "longitude": 120.2160109703,
    "latitude": 22.985807155289,
    "name": "Kadoya喫茶店",
    "date": "2016-06-08T15:00:01.128Z"
  },
  {
    "visit": 7,
    "longitude": 120.19656153963,
    "latitude": 22.994845396489,
    "name": "Mumu白姆森林（美、義料理）",
    "date": "2016-06-08T15:00:01.128Z"
  },
  {
    "visit": 7,
    "longitude": 120.235154067,
    "latitude": 23.003941326251,
    "name": "爭鮮迴轉寿司 Sushi Express 中華店",
    "date": "2016-06-08T15:00:01.128Z"
  },
  {
    "visit": 7,
    "longitude": 120.15338,
    "latitude": 22.99991,
    "name": "安平豆花☆",
    "date": "2016-06-08T15:00:01.128Z"
  },
  {
    "visit": 7,
    "longitude": 120.19918,
    "latitude": 22.99783,
    "name": "永樂燒肉飯",
    "date": "2016-06-08T15:00:01.128Z"
  },
  {
    "visit": 8,
    "longitude": 120.20457,
    "latitude": 22.99017,
    "name": "台南 孔廟",
    "date": "2016-06-08T15:00:01.128Z"
  },
  {
    "visit": 8,
    "longitude": 120.20493,
    "latitude": 22.98466,
    "name": "I - Mita 愛米塔。早午餐。輕食。蜜塔。",
    "date": "2016-06-08T15:00:01.128Z"
  },
  {
    "visit": 8,
    "longitude": 120.15367412095,
    "latitude": 22.996183559575,
    "name": "台灣咖啡博物館",
    "date": "2016-06-08T15:00:01.128Z"
  },
  {
    "visit": 8,
    "longitude": 120.22334259435,
    "latitude": 23.004627826304,
    "name": "一二三冰城",
    "date": "2016-06-08T15:00:01.128Z"
  },
  {
    "visit": 8,
    "longitude": 120.23124014952,
    "latitude": 23.008689449674,
    "name": "家樂福 台南中華店",
    "date": "2016-06-08T15:00:01.128Z"
  },
  {
    "visit": 8,
    "longitude": 120.22109105269,
    "latitude": 22.982336017913,
    "name": "銀座日式料理",
    "date": "2016-06-08T15:00:01.128Z"
  },
  {
    "visit": 8,
    "longitude": 120.20538,
    "latitude": 22.99803,
    "name": "異人館-成功店",
    "date": "2016-06-08T15:00:01.128Z"
  },
  {
    "visit": 8,
    "longitude": 120.30559528522,
    "latitude": 23.030330987487,
    "name": "新化體育公園",
    "date": "2016-06-08T15:00:01.128Z"
  },
  {
    "visit": 9,
    "longitude": 120.1862869,
    "latitude": 22.9779606,
    "name": "是吉祥火鍋",
    "date": "2016-06-08T15:00:01.128Z"
  },
  {
    "visit": 9,
    "longitude": 120.1474464754,
    "latitude": 22.997215896129,
    "name": "海之味海產餐廳 - 旗艦店",
    "date": "2016-06-08T15:00:01.128Z"
  },
  {
    "visit": 9,
    "longitude": 120.22068,
    "latitude": 22.97383,
    "name": "騎士堡愛麗絲的家",
    "date": "2016-06-08T15:00:01.128Z"
  },
  {
    "visit": 9,
    "longitude": 120.18736958314,
    "latitude": 23.008716228999,
    "name": "全家樂",
    "date": "2016-06-08T15:00:01.128Z"
  },
  {
    "visit": 9,
    "longitude": 120.2178192,
    "latitude": 22.9795609,
    "name": "維達都會生活俱樂部 La Vida Health Club",
    "date": "2016-06-08T15:00:01.128Z"
  },
  {
    "visit": 9,
    "longitude": 120.18595186813,
    "latitude": 22.98993393,
    "name": "台南市議會",
    "date": "2016-06-08T15:00:01.128Z"
  },
  {
    "visit": 9,
    "longitude": 120.21846061554,
    "latitude": 22.995345825567,
    "name": "鬥牛士二鍋成大店",
    "date": "2016-06-08T15:00:01.128Z"
  },
  {
    "visit": 9,
    "longitude": 120.18938,
    "latitude": 22.9973,
    "name": "新臨安橋-台南彩虹橋",
    "date": "2016-06-08T15:00:01.128Z"
  },
  {
    "visit": 9,
    "longitude": 120.25178685648,
    "latitude": 23.029001937785,
    "name": "聯盈發港式飲茶",
    "date": "2016-06-08T15:00:01.128Z"
  },
  {
    "visit": 9,
    "longitude": 120.22828,
    "latitude": 22.99323,
    "name": "冰礦",
    "date": "2016-06-08T15:00:01.128Z"
  },
  {
    "visit": 9,
    "longitude": 120.21113521267,
    "latitude": 22.975482946898,
    "name": "阿輝黑輪",
    "date": "2016-06-08T15:00:01.128Z"
  },
  {
    "visit": 9,
    "longitude": 120.2331082478,
    "latitude": 22.990812924633,
    "name": "藍屋おいや和風御膳-南紡夢時代",
    "date": "2016-06-08T15:00:01.128Z"
  },
  {
    "visit": 9,
    "longitude": 120.20790586704,
    "latitude": 22.990283538178,
    "name": "順風號",
    "date": "2016-06-08T15:00:01.128Z"
  },
  {
    "visit": 9,
    "longitude": 120.24029,
    "latitude": 23.00332,
    "name": "市立永仁高中",
    "date": "2016-06-08T15:00:01.128Z"
  },
  {
    "visit": 10,
    "longitude": 120.1879653,
    "latitude": 23.0077551,
    "name": "天成複合式釣蝦埸",
    "date": "2016-06-08T15:00:01.128Z"
  },
  {
    "visit": 10,
    "longitude": 120.18755435944,
    "latitude": 22.989054217213,
    "name": "石頭燒肉（永華館）",
    "date": "2016-06-08T15:00:01.128Z"
  },
  {
    "visit": 10,
    "longitude": 120.26184699061,
    "latitude": 23.18648820243,
    "name": "麻豆無名乾麵",
    "date": "2016-06-08T15:00:01.128Z"
  },
  {
    "visit": 10,
    "longitude": 120.21468602193,
    "latitude": 22.997505891636,
    "name": "國立成功大學光復操場",
    "date": "2016-06-08T15:00:01.128Z"
  },
  {
    "visit": 10,
    "longitude": 120.22342,
    "latitude": 22.9935,
    "name": "開普三號店 CAPE CAFE 3",
    "date": "2016-06-08T15:00:01.128Z"
  },
  {
    "visit": 10,
    "longitude": 120.21793,
    "latitude": 22.9917,
    "name": "波哥茶飲(台南勝利店)",
    "date": "2016-06-08T15:00:01.128Z"
  },
  {
    "visit": 11,
    "longitude": 120.21779401825,
    "latitude": 22.9916940677,
    "name": "Mr. 拉麵",
    "date": "2016-06-08T15:00:01.128Z"
  },
  {
    "visit": 11,
    "longitude": 120.1909041,
    "latitude": 22.974272408129,
    "name": "台南市麥當勞金華店",
    "date": "2016-06-08T15:00:01.128Z"
  },
  {
    "visit": 11,
    "longitude": 120.20828191015,
    "latitude": 23.000280946257,
    "name": "紅狼美式酒吧",
    "date": "2016-06-08T15:00:01.128Z"
  },
  {
    "visit": 11,
    "longitude": 120.19780200611,
    "latitude": 22.988245991803,
    "name": "台南西門錢櫃KTV",
    "date": "2016-06-08T15:00:01.128Z"
  },
  {
    "visit": 11,
    "longitude": 120.21083,
    "latitude": 22.99715,
    "name": "台南大飯店 Hotel Tainan",
    "date": "2016-06-08T15:00:01.128Z"
  },
  {
    "visit": 11,
    "longitude": 120.19392913823,
    "latitude": 22.986546030482,
    "name": "水萍塭公園",
    "date": "2016-06-08T15:00:01.128Z"
  },
  {
    "visit": 11,
    "longitude": 120.22245633682,
    "latitude": 22.978985465789,
    "name": "爭鮮迴轉壽司崇學店",
    "date": "2016-06-08T15:00:01.128Z"
  },
  {
    "visit": 11,
    "longitude": 120.29084134795,
    "latitude": 23.078626211883,
    "name": "新市土地公臭豆腐",
    "date": "2016-06-08T15:00:01.128Z"
  },
  {
    "visit": 11,
    "longitude": 120.25833909,
    "latitude": 23.03247518,
    "name": "永康 龍潭",
    "date": "2016-06-08T15:00:01.128Z"
  },
  {
    "visit": 11,
    "longitude": 120.221138,
    "latitude": 22.9953194,
    "name": "轉角餐廳 Corner Steak House",
    "date": "2016-06-08T15:00:01.128Z"
  },
  {
    "visit": 11,
    "longitude": 120.20887197922,
    "latitude": 22.996604862795,
    "name": "行政院衛生署台南醫院",
    "date": "2016-06-08T15:00:01.128Z"
  },
  {
    "visit": 11,
    "longitude": 120.18701881914,
    "latitude": 22.988361945739,
    "name": "品田牧場-安平家樂福店",
    "date": "2016-06-08T15:00:01.128Z"
  },
  {
    "visit": 11,
    "longitude": 120.22068,
    "latitude": 22.97383,
    "name": "誠品書店-德安百貨",
    "date": "2016-06-08T15:00:01.128Z"
  },
  {
    "visit": 11,
    "longitude": 120.17856763435,
    "latitude": 23.158738286313,
    "name": "佳里丹丹漢堡",
    "date": "2016-06-08T15:00:01.128Z"
  },
  {
    "visit": 12,
    "longitude": 120.25168441453,
    "latitude": 22.99871999678,
    "name": "異人館咖啡部屋 崑山店",
    "date": "2016-06-08T15:00:01.128Z"
  },
  {
    "visit": 12,
    "longitude": 120.210877855,
    "latitude": 22.99504133,
    "name": "D.D BEAR",
    "date": "2016-06-08T15:00:01.128Z"
  },
  {
    "visit": 12,
    "longitude": 120.22511905,
    "latitude": 22.998710197147,
    "name": "澄花日式壽喜燒",
    "date": "2016-06-08T15:00:01.128Z"
  },
  {
    "visit": 12,
    "longitude": 120.22538,
    "latitude": 22.97132,
    "name": "崇明國小",
    "date": "2016-06-08T15:00:01.128Z"
  },
  {
    "visit": 12,
    "longitude": 120.21887314804,
    "latitude": 22.982815914296,
    "name": "台南大東夜市❤E.M❤",
    "date": "2016-06-08T15:00:01.128Z"
  },
  {
    "visit": 12,
    "longitude": 120.214758,
    "latitude": 22.9937616,
    "name": "黑工號 嫩仙草",
    "date": "2016-06-08T15:00:01.128Z"
  },
  {
    "visit": 12,
    "longitude": 120.24409461827,
    "latitude": 22.989786633582,
    "name": "Starbucks星巴克典藏門市-虎尾寮",
    "date": "2016-06-08T15:00:01.128Z"
  },
  {
    "visit": 12,
    "longitude": 120.19605929352,
    "latitude": 22.979536452935,
    "name": "新興國小",
    "date": "2016-06-07T06:30:01.763Z"
  },
  {
    "visit": 12,
    "longitude": 120.1901943271,
    "latitude": 23.040243567454,
    "name": "同安夜市",
    "date": "2016-06-08T15:00:01.128Z"
  },
  {
    "visit": 12,
    "longitude": 120.2288409422,
    "latitude": 23.033803735101,
    "name": "伊豆日本料理",
    "date": "2016-06-08T15:00:01.128Z"
  },
  {
    "visit": 12,
    "longitude": 120.26107,
    "latitude": 23.01991,
    "name": "大成釣蝦",
    "date": "2016-06-08T15:00:01.128Z"
  },
  {
    "visit": 12,
    "longitude": 120.19949022102,
    "latitude": 22.995107637143,
    "name": "花見宇治抹茶甘味処",
    "date": "2016-06-08T15:00:01.128Z"
  },
  {
    "visit": 12,
    "longitude": 120.17701185589,
    "latitude": 23.161174557172,
    "name": "佳里菜市場",
    "date": "2016-06-08T15:00:01.128Z"
  },
  {
    "visit": 12,
    "longitude": 120.22833,
    "latitude": 22.99349,
    "name": "Domo Pann 多麼胖咖啡東興店",
    "date": "2016-06-08T15:00:01.128Z"
  },
  {
    "visit": 13,
    "longitude": 120.2957203204,
    "latitude": 23.131418048635,
    "name": "善化天佳KTV釣蝦場",
    "date": "2016-06-08T15:00:01.128Z"
  },
  {
    "visit": 13,
    "longitude": 120.19581145527,
    "latitude": 22.996994474522,
    "name": "台南西羅殿廣澤尊王",
    "date": "2016-06-08T15:00:01.128Z"
  },
  {
    "visit": 13,
    "longitude": 120.20813,
    "latitude": 23.0002299,
    "name": "Red Wolf Taven LIVe Music PUB",
    "date": "2016-06-08T15:00:01.128Z"
  },
  {
    "visit": 13,
    "longitude": 120.20185243656,
    "latitude": 23.00317416798,
    "name": "夏幕尼香榭鐵板燒",
    "date": "2016-06-08T15:00:01.128Z"
  },
  {
    "visit": 13,
    "longitude": 120.17548199013,
    "latitude": 22.989375910681,
    "name": "台南市安平區",
    "date": "2016-06-08T15:00:01.128Z"
  },
  {
    "visit": 14,
    "longitude": 120.23976673162,
    "latitude": 23.03731658936,
    "name": "台南應用科技大學D大樓",
    "date": "2016-06-08T15:00:01.128Z"
  },
  {
    "visit": 14,
    "longitude": 120.16729,
    "latitude": 22.99894,
    "name": "安平古堡",
    "date": "2016-06-08T15:00:01.128Z"
  },
  {
    "visit": 14,
    "longitude": 120.15774199652,
    "latitude": 22.994065245015,
    "name": "林默娘公園",
    "date": "2016-06-08T15:00:01.128Z"
  },
  {
    "visit": 14,
    "longitude": 120.2394779792,
    "latitude": 23.03683027415,
    "name": "台南應用科技大學 LT大樓",
    "date": "2016-06-08T15:00:01.128Z"
  },
  {
    "visit": 14,
    "longitude": 120.223688,
    "latitude": 22.980319,
    "name": "薄多義bit2eat義大利麵pizza台南崇學",
    "date": "2016-06-08T15:00:01.128Z"
  },
  {
    "visit": 14,
    "longitude": 120.1729612872,
    "latitude": 22.998086687755,
    "name": "臺南安平",
    "date": "2016-06-08T15:00:01.128Z"
  },
  {
    "visit": 14,
    "longitude": 120.20693,
    "latitude": 22.99993,
    "name": "台南玉皇宮天公廟",
    "date": "2016-06-08T15:00:01.128Z"
  },
  {
    "visit": 14,
    "longitude": 120.22328,
    "latitude": 22.98706,
    "name": "比薩茶坊",
    "date": "2016-06-08T15:00:01.128Z"
  },
  {
    "visit": 14,
    "longitude": 120.2386531499,
    "latitude": 22.982431252393,
    "name": "台南市復興國小",
    "date": "2016-06-08T15:00:01.128Z"
  },
  {
    "visit": 14,
    "longitude": 120.22334,
    "latitude": 22.97478,
    "name": "伊豆京風料理",
    "date": "2016-06-08T15:00:01.128Z"
  },
  {
    "visit": 15,
    "longitude": 120.18707558682,
    "latitude": 22.98875858967,
    "name": "Friday's",
    "date": "2016-06-08T15:00:01.128Z"
  },
  {
    "visit": 15,
    "longitude": 120.21313,
    "latitude": 22.99242,
    "name": "臺南知事官邸",
    "date": "2016-06-08T15:00:01.128Z"
  },
  {
    "visit": 15,
    "longitude": 120.19209877667,
    "latitude": 22.987786760748,
    "name": "金華路茶大",
    "date": "2016-06-08T15:00:01.128Z"
  },
  {
    "visit": 15,
    "longitude": 120.2389,
    "latitude": 22.98517,
    "name": "異人館（裕平店）",
    "date": "2016-06-08T15:00:01.128Z"
  },
  {
    "visit": 15,
    "longitude": 120.20409,
    "latitude": 22.98904,
    "name": "莉莉水果店",
    "date": "2016-06-08T15:00:01.128Z"
  },
  {
    "visit": 15,
    "longitude": 120.25188,
    "latitude": 23.02915,
    "name": "聯盈發點心專門店",
    "date": "2016-06-08T15:00:01.128Z"
  },
  {
    "visit": 15,
    "longitude": 120.2050849974,
    "latitude": 22.996828678508,
    "name": "美樂蒂中成店VIP包廂",
    "date": "2016-06-08T15:00:01.128Z"
  },
  {
    "visit": 15,
    "longitude": 120.2094579,
    "latitude": 22.9956648,
    "name": "南方公園-森菓鯛魚燒霜淇淋",
    "date": "2016-06-08T15:00:01.128Z"
  },
  {
    "visit": 16,
    "longitude": 120.2101593,
    "latitude": 22.9956303,
    "name": "Focus 11F 二鍋(壽喜燒)",
    "date": "2016-06-08T15:00:01.128Z"
  },
  {
    "visit": 16,
    "longitude": 120.20669,
    "latitude": 23.01232,
    "name": "千喜火鍋館",
    "date": "2016-06-08T15:00:01.128Z"
  },
  {
    "visit": 16,
    "longitude": 120.21587721507,
    "latitude": 22.997538141459,
    "name": "國立成功大學國際會議廳",
    "date": "2016-06-08T15:00:01.128Z"
  },
  {
    "visit": 17,
    "longitude": 120.18852694815,
    "latitude": 22.981994586715,
    "name": "春喜燒烤",
    "date": "2016-06-08T15:00:01.128Z"
  },
  {
    "visit": 17,
    "longitude": 120.294932,
    "latitude": 23.1309857,
    "name": "小桔子善化店",
    "date": "2016-06-08T15:00:01.128Z"
  },
  {
    "visit": 17,
    "longitude": 120.20750741617,
    "latitude": 22.984047594813,
    "name": "國立台南大學",
    "date": "2016-06-08T15:00:01.128Z"
  },
  {
    "visit": 17,
    "longitude": 120.29516638,
    "latitude": 23.128348572267,
    "name": "大成國小",
    "date": "2016-06-08T15:00:01.128Z"
  },
  {
    "visit": 17,
    "longitude": 120.21281128346,
    "latitude": 22.996978888208,
    "name": "台南火車站",
    "date": "2016-06-08T15:00:01.128Z"
  },
  {
    "visit": 17,
    "longitude": 120.22107832478,
    "latitude": 23.024788077567,
    "name": "Golden Brother's Dormit0ry",
    "date": "2016-06-08T15:00:01.128Z"
  },
  {
    "visit": 18,
    "longitude": 120.19794,
    "latitude": 22.98834,
    "name": "錢櫃KTV台南店",
    "date": "2016-06-08T15:00:01.128Z"
  },
  {
    "visit": 18,
    "longitude": 120.19733,
    "latitude": 22.99435,
    "name": "正興街",
    "date": "2016-06-08T15:00:01.128Z"
  },
  {
    "visit": 18,
    "longitude": 120.20639726929,
    "latitude": 23.001723223426,
    "name": "阿憨鹹粥",
    "date": "2016-06-08T15:00:01.128Z"
  },
  {
    "visit": 18,
    "longitude": 120.21332403897,
    "latitude": 23.003999193997,
    "name": "野宴日式炭火燒肉-北門店",
    "date": "2016-06-08T15:00:01.128Z"
  },
  {
    "visit": 18,
    "longitude": 120.200817,
    "latitude": 22.981624,
    "name": "國立臺南家齊女子高級中學",
    "date": "2016-06-08T15:00:01.128Z"
  },
  {
    "visit": 18,
    "longitude": 120.22554715615,
    "latitude": 22.934710000308,
    "name": "台南白宮～奇美博物館",
    "date": "2016-06-08T15:00:01.128Z"
  },
  {
    "visit": 18,
    "longitude": 120.22317,
    "latitude": 22.98084,
    "name": "準媽媽婦嬰用品專賣店(直營系統)",
    "date": "2016-06-08T15:00:01.128Z"
  },
  {
    "visit": 19,
    "longitude": 120.29007762211,
    "latitude": 23.0681208078,
    "name": "台南新市火車站",
    "date": "2016-06-08T15:00:01.128Z"
  },
  {
    "visit": 19,
    "longitude": 120.25358891503,
    "latitude": 23.038462654754,
    "name": "永康火車站 Yongkang Station",
    "date": "2016-06-08T15:00:01.128Z"
  },
  {
    "visit": 19,
    "longitude": 120.21133311879,
    "latitude": 22.99709976753,
    "name": "爭鮮迴轉壽司-台南店",
    "date": "2016-06-08T15:00:01.128Z"
  },
  {
    "visit": 20,
    "longitude": 120.1976860957,
    "latitude": 22.993864149254,
    "name": "國華街淺草青春新天地",
    "date": "2016-06-08T15:00:01.128Z"
  },
  {
    "visit": 20,
    "longitude": 120.19637416831,
    "latitude": 22.997658165585,
    "name": "神農街",
    "date": "2016-06-08T15:00:01.128Z"
  },
  {
    "visit": 20,
    "longitude": 120.29213118231,
    "latitude": 23.076920273762,
    "name": "新市夜市",
    "date": "2016-06-08T15:00:01.128Z"
  },
  {
    "visit": 20,
    "longitude": 120.2336752,
    "latitude": 22.9912468,
    "name": "跳舞香水 南紡夢時代",
    "date": "2016-06-08T15:00:01.128Z"
  },
  {
    "visit": 20,
    "longitude": 120.2297115,
    "latitude": 22.9930432,
    "name": "ORO 凱旋店",
    "date": "2016-06-08T15:00:01.128Z"
  },
  {
    "visit": 21,
    "longitude": 120.14699658705,
    "latitude": 22.989819453777,
    "name": "安平觀夕平台 Anping Sunset Platform",
    "date": "2016-06-08T15:00:01.128Z"
  },
  {
    "visit": 21,
    "longitude": 120.22115555556,
    "latitude": 22.991069444444,
    "name": "臺南市私立長榮女子高級中學",
    "date": "2016-06-08T15:00:01.128Z"
  },
  {
    "visit": 21,
    "longitude": 120.20086430918,
    "latitude": 22.993856822747,
    "name": "台南裕成水果店",
    "date": "2016-06-08T15:00:01.128Z"
  },
  {
    "visit": 21,
    "longitude": 120.20288,
    "latitude": 22.99151,
    "name": "陶阪屋 忠義店",
    "date": "2016-06-08T15:00:01.128Z"
  },
  {
    "visit": 21,
    "longitude": 120.3077,
    "latitude": 23.0345,
    "name": "台南-新化老街",
    "date": "2016-06-08T15:00:01.128Z"
  },
  {
    "visit": 21,
    "longitude": 120.23348098632,
    "latitude": 22.990896678551,
    "name": "台南南紡夢時代威秀影城 Gold Class頂級影廳",
    "date": "2016-06-08T15:00:01.128Z"
  },
  {
    "visit": 22,
    "longitude": 120.19497012363,
    "latitude": 22.986138981812,
    "name": "夏林海鮮碳烤",
    "date": "2016-06-08T15:00:01.128Z"
  },
  {
    "visit": 22,
    "longitude": 120.24887363544,
    "latitude": 23.190200644471,
    "name": "麻豆監理站",
    "date": "2016-06-08T15:00:01.128Z"
  },
  {
    "visit": 22,
    "longitude": 120.17461,
    "latitude": 22.99818,
    "name": "台南周氏蝦捲總店",
    "date": "2016-06-08T15:00:01.128Z"
  },
  {
    "visit": 22,
    "longitude": 120.21526,
    "latitude": 22.98879,
    "name": "毛丼 丼飯專門店",
    "date": "2016-06-08T15:00:01.128Z"
  },
  {
    "visit": 23,
    "longitude": 120.17125893886,
    "latitude": 22.990979544767,
    "name": "星巴克-永華國平",
    "date": "2016-06-08T15:00:01.128Z"
  },
  {
    "visit": 23,
    "longitude": 120.21921,
    "latitude": 23.0021999,
    "name": "國立成功大學醫學院",
    "date": "2016-06-08T15:00:01.128Z"
  },
  {
    "visit": 23,
    "longitude": 120.23442406386,
    "latitude": 23.007290845601,
    "name": "Bk板塊牛排中華店",
    "date": "2016-06-08T15:00:01.128Z"
  },
  {
    "visit": 23,
    "longitude": 120.22355826271,
    "latitude": 22.999363759867,
    "name": "成大自強校區",
    "date": "2016-06-08T15:00:01.128Z"
  },
  {
    "visit": 24,
    "longitude": 120.24811824569,
    "latitude": 22.988060962604,
    "name": "中山高速公路上!!",
    "date": "2016-06-08T15:00:01.128Z"
  },
  {
    "visit": 24,
    "longitude": 120.20556460294,
    "latitude": 22.985204217647,
    "name": "Tainan City,taiwan ROC",
    "date": "2016-06-08T15:00:01.128Z"
  },
  {
    "visit": 24,
    "longitude": 120.24806508478,
    "latitude": 23.183110966778,
    "name": "台南巿麻豆區",
    "date": "2016-06-08T15:00:01.128Z"
  },
  {
    "visit": 25,
    "longitude": 120.20517827393,
    "latitude": 22.982567423057,
    "name": "懷舊小棧 - 五妃廟口豆腐冰",
    "date": "2016-06-08T15:00:01.128Z"
  },
  {
    "visit": 25,
    "longitude": 120.19787731124,
    "latitude": 22.99706188423,
    "name": "水仙宮市場",
    "date": "2016-06-08T15:00:01.128Z"
  },
  {
    "visit": 25,
    "longitude": 120.08332497859,
    "latitude": 23.218327424711,
    "name": "馬沙溝濱海遊憩區",
    "date": "2016-06-08T15:00:01.128Z"
  },
  {
    "visit": 26,
    "longitude": 120.19890261424,
    "latitude": 22.997467676134,
    "name": "台南永樂市場",
    "date": "2016-06-08T15:00:01.128Z"
  },
  {
    "visit": 27,
    "longitude": 120.21456,
    "latitude": 22.99382,
    "name": "AJ Burger美式餐廳",
    "date": "2016-06-08T15:00:01.128Z"
  },
  {
    "visit": 27,
    "longitude": 120.20281111111,
    "latitude": 22.9975,
    "name": "Fort Provintia",
    "date": "2016-06-08T15:00:01.128Z"
  },
  {
    "visit": 28,
    "longitude": 120.17174833708,
    "latitude": 23.163830095139,
    "name": "佳里國小",
    "date": "2016-06-08T15:00:01.128Z"
  },
  {
    "visit": 28,
    "longitude": 120.21543509477,
    "latitude": 23.040711711082,
    "name": "大安順ktv",
    "date": "2016-06-08T15:00:01.128Z"
  },
  {
    "visit": 28,
    "longitude": 120.20855970866,
    "latitude": 23.011058118089,
    "name": "米蘭時尚髮型集團總管理處&教育中心",
    "date": "2016-06-08T15:00:01.128Z"
  },
  {
    "visit": 28,
    "longitude": 120.22122417549,
    "latitude": 22.973993912762,
    "name": "健身工廠（德安廠）",
    "date": "2016-06-08T15:00:01.128Z"
  },
  {
    "visit": 28,
    "longitude": 120.22057687337,
    "latitude": 22.9922225016,
    "name": "韓朝 東寧店",
    "date": "2016-06-08T15:00:01.128Z"
  },
  {
    "visit": 29,
    "longitude": 120.48392960005,
    "latitude": 22.88294067157,
    "name": "旗山",
    "date": "2016-06-08T15:00:01.128Z"
  },
  {
    "visit": 29,
    "longitude": 120.23286110897,
    "latitude": 22.990083919179,
    "name": "台南夢時代",
    "date": "2016-06-08T15:00:01.128Z"
  },
  {
    "visit": 29,
    "longitude": 120.17913393594,
    "latitude": 22.997524545472,
    "name": "南山人壽台南分公司",
    "date": "2016-06-08T15:00:01.128Z"
  },
  {
    "visit": 30,
    "longitude": 120.21672,
    "latitude": 22.9956299,
    "name": "瘋牛排洋食Fun Steak",
    "date": "2016-06-08T15:00:01.128Z"
  },
  {
    "visit": 30,
    "longitude": 120.22862,
    "latitude": 22.98999,
    "name": "萬客樓",
    "date": "2016-06-08T15:00:01.128Z"
  },
  {
    "visit": 30,
    "longitude": 120.22195877594,
    "latitude": 22.9909704184,
    "name": "東寧教會",
    "date": "2016-06-08T15:00:01.128Z"
  },
  {
    "visit": 31,
    "longitude": 120.20232,
    "latitude": 22.99911,
    "name": "彩虹日本料理",
    "date": "2016-06-08T15:00:01.128Z"
  },
  {
    "visit": 33,
    "longitude": 120.21069594405,
    "latitude": 23.001824288535,
    "name": "台南公園",
    "date": "2016-06-08T15:00:01.128Z"
  },
  {
    "visit": 33,
    "longitude": 120.2826813912,
    "latitude": 23.098488558213,
    "name": "台南科學園區",
    "date": "2016-06-08T15:00:01.128Z"
  },
  {
    "visit": 33,
    "longitude": 120.18773261116,
    "latitude": 23.007500481868,
    "name": "天成複合式主題館",
    "date": "2016-06-08T15:00:01.128Z"
  },
  {
    "visit": 34,
    "longitude": 120.18730048133,
    "latitude": 22.990860843203,
    "name": "台南生活美學館",
    "date": "2016-06-08T15:00:01.128Z"
  },
  {
    "visit": 34,
    "longitude": 120.21818488133,
    "latitude": 23.002205663651,
    "name": "台南成大醫院",
    "date": "2016-06-08T15:00:01.128Z"
  },
  {
    "visit": 34,
    "longitude": 120.21836,
    "latitude": 22.99595,
    "name": "陶板屋 台南勝利店",
    "date": "2016-06-08T15:00:01.128Z"
  },
  {
    "visit": 34,
    "longitude": 120.22841,
    "latitude": 22.98018,
    "name": "婦兒安婦幼中心",
    "date": "2016-06-08T15:00:01.128Z"
  },
  {
    "visit": 35,
    "longitude": 120.2273399,
    "latitude": 22.9591703,
    "name": "金滿座複合式釣蝦場",
    "date": "2016-06-08T15:00:01.128Z"
  },
  {
    "visit": 35,
    "longitude": 120.21921,
    "latitude": 23.0021999,
    "name": "成大醫院急診部",
    "date": "2016-06-08T15:00:01.128Z"
  },
  {
    "visit": 36,
    "longitude": 120.20515438244,
    "latitude": 22.99002244605,
    "name": "保哥黑輪",
    "date": "2016-06-08T15:00:01.128Z"
  },
  {
    "visit": 36,
    "longitude": 120.30115,
    "latitude": 23.13081,
    "name": "老胡記",
    "date": "2016-06-08T15:00:01.128Z"
  },
  {
    "visit": 39,
    "longitude": 120.22101,
    "latitude": 22.9951,
    "name": "Noah's ark 諾亞方舟主廚餐廳",
    "date": "2016-06-08T15:00:01.128Z"
  },
  {
    "visit": 39,
    "longitude": 120.2192078,
    "latitude": 23.0021992,
    "name": "成大醫院",
    "date": "2016-06-08T15:00:01.128Z"
  },
  {
    "visit": 42,
    "longitude": 120.23068,
    "latitude": 22.99057,
    "name": "東光國小",
    "date": "2016-06-08T15:00:01.128Z"
  },
  {
    "visit": 42,
    "longitude": 120.20123039561,
    "latitude": 22.999763941558,
    "name": "劉家肉粽",
    "date": "2016-06-08T15:00:01.128Z"
  },
  {
    "visit": 43,
    "longitude": 120.243656,
    "latitude": 22.926503,
    "name": "奇美博物館",
    "date": "2016-06-08T15:00:01.128Z"
  },
  {
    "visit": 43,
    "longitude": 120.18758909,
    "latitude": 22.991338212222,
    "name": "國立台南生活美學館(演藝廳)",
    "date": "2016-06-08T15:00:01.128Z"
  },
  {
    "visit": 43,
    "longitude": 120.21306038132,
    "latitude": 22.989398637653,
    "name": "Tainan Sin Lau hospital",
    "date": "2016-06-08T15:00:01.128Z"
  },
  {
    "visit": 44,
    "longitude": 120.161134,
    "latitude": 23.003993,
    "name": "臺南安平老街",
    "date": "2016-06-08T15:00:01.128Z"
  },
  {
    "visit": 45,
    "longitude": 120.22672155736,
    "latitude": 22.968563685346,
    "name": "臺南市市立醫院",
    "date": "2016-06-08T15:00:01.128Z"
  },
  {
    "visit": 45,
    "longitude": 120.20850574289,
    "latitude": 22.984945899305,
    "name": "台南大學雅音樓",
    "date": "2016-06-08T15:00:01.128Z"
  },
  {
    "visit": 46,
    "longitude": 120.18737,
    "latitude": 22.99277,
    "name": "爭鮮迴轉壽司",
    "date": "2016-06-08T15:00:01.128Z"
  },
  {
    "visit": 48,
    "longitude": 120.22631,
    "latitude": 22.99154,
    "name": "上海好味道小籠湯包",
    "date": "2016-06-08T15:00:01.128Z"
  },
  {
    "visit": 48,
    "longitude": 120.21026,
    "latitude": 22.98958,
    "name": "太陽牌冰品",
    "date": "2016-06-08T15:00:01.128Z"
  },
  {
    "visit": 48,
    "longitude": 120.19343913971,
    "latitude": 23.010363926672,
    "name": "Costco 台南店",
    "date": "2016-06-08T15:00:01.128Z"
  },
  {
    "visit": 49,
    "longitude": 120.1873587747,
    "latitude": 23.008733116034,
    "name": "全家樂釣蝦場",
    "date": "2016-06-08T15:00:01.128Z"
  },
  {
    "visit": 50,
    "longitude": 120.2032400847,
    "latitude": 22.99418411984,
    "name": "渝苑川菜館",
    "date": "2016-06-08T15:00:01.128Z"
  },
  {
    "visit": 50,
    "longitude": 120.19595,
    "latitude": 22.9952,
    "name": "唐寅居",
    "date": "2016-06-08T15:00:01.128Z"
  },
  {
    "visit": 54,
    "longitude": 120.23349371124,
    "latitude": 22.9917667582,
    "name": "Bellini Pasta Pasta 台南夢時代店",
    "date": "2016-06-08T15:00:01.128Z"
  },
  {
    "visit": 57,
    "longitude": 120.18606,
    "latitude": 23.00647,
    "name": "星巴克-湖美門市",
    "date": "2016-06-08T15:00:01.128Z"
  },
  {
    "visit": 57,
    "longitude": 120.21560359044,
    "latitude": 22.997793962917,
    "name": "NCKU光復校區 成功廳",
    "date": "2016-06-08T15:00:01.128Z"
  },
  {
    "visit": 58,
    "longitude": 120.20972222222,
    "latitude": 22.975555555556,
    "name": "臺南市立體育場",
    "date": "2016-06-08T15:00:01.128Z"
  },
  {
    "visit": 60,
    "longitude": 120.20981575793,
    "latitude": 22.995100521131,
    "name": "新光三越 台南中山店",
    "date": "2016-06-08T15:00:01.128Z"
  },
  {
    "visit": 62,
    "longitude": 120.1680442,
    "latitude": 22.9865629,
    "name": "In STYLE hair studio",
    "date": "2016-06-08T15:00:01.128Z"
  },
  {
    "visit": 62,
    "longitude": 120.19850423337,
    "latitude": 22.994749332434,
    "name": "郭綜合醫院",
    "date": "2016-06-08T15:00:01.128Z"
  },
  {
    "visit": 62,
    "longitude": 120.20983574071,
    "latitude": 22.97075290473,
    "name": "台南殯儀館",
    "date": "2016-06-08T15:00:01.128Z"
  },
  {
    "visit": 63,
    "longitude": 120.1853837296,
    "latitude": 23.009899057119,
    "name": "台南市旗哥牛肉湯",
    "date": "2016-06-08T15:00:01.128Z"
  },
  {
    "visit": 64,
    "longitude": 120.19724200369,
    "latitude": 22.992639866802,
    "name": "台南國華商圈",
    "date": "2016-06-08T15:00:01.128Z"
  },
  {
    "visit": 64,
    "longitude": 120.16162688932,
    "latitude": 23.00030923355,
    "name": "陳家蚵捲",
    "date": "2016-06-08T15:00:01.128Z"
  },
  {
    "visit": 66,
    "longitude": 120.18707872014,
    "latitude": 22.982340517677,
    "name": "北京麻辣鴛鴦火鍋",
    "date": "2016-06-08T15:00:01.128Z"
  },
  {
    "visit": 67,
    "longitude": 120.18932,
    "latitude": 22.99203,
    "name": "多一點咖啡館-台南美學館-品牌特許授權店",
    "date": "2016-06-08T15:00:01.128Z"
  },
  {
    "visit": 68,
    "longitude": 120.2100688535,
    "latitude": 22.995789099976,
    "name": "Focus時尚流行館",
    "date": "2016-06-08T15:00:01.128Z"
  },
  {
    "visit": 69,
    "longitude": 120.19793,
    "latitude": 22.98777,
    "name": "Tayih Landis Hotel Tainan 台南大億麗緻酒店",
    "date": "2016-06-08T15:00:01.128Z"
  },
  {
    "visit": 69,
    "longitude": 120.1986886,
    "latitude": 22.9882905,
    "name": "台南晶英酒店",
    "date": "2016-06-08T15:00:01.128Z"
  },
  {
    "visit": 69,
    "longitude": 120.0880797534,
    "latitude": 23.210773428785,
    "name": "將軍漁港",
    "date": "2016-06-08T15:00:01.128Z"
  },
  {
    "visit": 70,
    "longitude": 120.19796,
    "latitude": 22.98999,
    "name": "　阿堂鹹粥",
    "date": "2016-06-08T15:00:01.128Z"
  },
  {
    "visit": 71,
    "longitude": 120.1750225698,
    "latitude": 22.988219089422,
    "name": "東東宴會式場",
    "date": "2016-06-08T15:00:01.128Z"
  },
  {
    "visit": 77,
    "longitude": 120.18669677399,
    "latitude": 23.009581872988,
    "name": "北海ktv",
    "date": "2016-06-08T15:00:01.128Z"
  },
  {
    "visit": 80,
    "longitude": 120.20722222222,
    "latitude": 22.983888888889,
    "name": "National University of Tainan",
    "date": "2016-06-08T15:00:01.128Z"
  },
  {
    "visit": 81,
    "longitude": 120.20878672041,
    "latitude": 23.011660438679,
    "name": "總理餐廳",
    "date": "2016-06-08T15:00:01.128Z"
  },
  {
    "visit": 82,
    "longitude": 120.18671904611,
    "latitude": 23.007568949352,
    "name": "和緯黃昏市場",
    "date": "2016-06-08T15:00:01.128Z"
  },
  {
    "visit": 85,
    "longitude": 120.19885234763,
    "latitude": 22.987538694479,
    "name": "和逸•台南西門館",
    "date": "2016-06-08T15:00:01.128Z"
  },
  {
    "visit": 85,
    "longitude": 120.22130284575,
    "latitude": 22.979366799069,
    "name": "天主教德光中學",
    "date": "2016-06-08T15:00:01.128Z"
  },
  {
    "visit": 87,
    "longitude": 120.18658900007,
    "latitude": 22.986884329,
    "name": "輕井澤鍋物 台南店",
    "date": "2016-06-08T15:00:01.128Z"
  },
  {
    "visit": 88,
    "longitude": 120.21808780545,
    "latitude": 23.001831011744,
    "name": "成大醫院門診大樓",
    "date": "2016-06-08T15:00:01.128Z"
  },
  {
    "visit": 89,
    "longitude": 120.23538767304,
    "latitude": 23.00409872635,
    "name": "石頭日式炭火燒肉",
    "date": "2016-06-08T15:00:01.128Z"
  },
  {
    "visit": 90,
    "longitude": 120.2515734194,
    "latitude": 23.03639608295,
    "name": "164 Siwei Street,yongkang District,tainan City,710 Taiwan",
    "date": "2016-06-08T15:00:01.128Z"
  },
  {
    "visit": 94,
    "longitude": 120.1971893,
    "latitude": 22.9944401,
    "name": "泰成水果店",
    "date": "2016-06-08T15:00:01.128Z"
  },
  {
    "visit": 95,
    "longitude": 120.19821037581,
    "latitude": 22.98739150113,
    "name": "台南新光三越新天地-新光影城",
    "date": "2016-06-08T15:00:01.128Z"
  },
  {
    "visit": 102,
    "longitude": 120.18570852685,
    "latitude": 22.998042744245,
    "name": "台南市安平區運河",
    "date": "2016-06-08T15:00:01.128Z"
  },
  {
    "visit": 105,
    "longitude": 120.15633,
    "latitude": 23.00252,
    "name": "安平夕遊出張所",
    "date": "2016-06-08T15:00:01.128Z"
  },
  {
    "visit": 115,
    "longitude": 120.16485277778,
    "latitude": 22.993477777778,
    "name": "Anping District",
    "date": "2016-06-08T15:00:01.128Z"
  },
  {
    "visit": 120,
    "longitude": 120.1936512,
    "latitude": 23.0161435,
    "name": "極鮮火鍋文賢店",
    "date": "2016-06-08T15:00:01.128Z"
  },
  {
    "visit": 131,
    "longitude": 120.22082,
    "latitude": 22.97444,
    "name": "台南長榮桂冠酒店",
    "date": "2016-06-08T15:00:01.128Z"
  },
  {
    "visit": 132,
    "longitude": 120.23293733967,
    "latitude": 22.99103966379,
    "name": "\"台南南紡\"夢時代購物中心",
    "date": "2016-06-08T15:00:01.128Z"
  },
  {
    "visit": 135,
    "longitude": 120.20451181892,
    "latitude": 22.980124001035,
    "name": "葡萄王葡眾企業-台南會場勞工育樂中心",
    "date": "2016-06-08T15:00:01.128Z"
  },
  {
    "visit": 136,
    "longitude": 120.16080528271,
    "latitude": 23.001228038111,
    "name": "台南市安平古堡&老街",
    "date": "2016-06-08T15:00:01.128Z"
  },
  {
    "visit": 138,
    "longitude": 120.21666666667,
    "latitude": 23,
    "name": "National Cheng Kung University",
    "date": "2016-06-08T15:00:01.128Z"
  },
  {
    "visit": 138,
    "longitude": 120.21722757835,
    "latitude": 22.996498061546,
    "name": "國立成功大學",
    "date": "2016-06-08T15:00:01.128Z"
  },
  {
    "visit": 139,
    "longitude": 120.2104,
    "latitude": 22.99464,
    "name": "西堤 Tasty (台南民族店)",
    "date": "2016-06-08T15:00:01.128Z"
  },
  {
    "visit": 144,
    "longitude": 120.22185559466,
    "latitude": 22.989340099854,
    "name": "私立長榮高級中學 Chang Jung Senior High School",
    "date": "2016-06-08T15:00:01.128Z"
  },
  {
    "visit": 157,
    "longitude": 120.23120798324,
    "latitude": 22.989133118867,
    "name": "老四川巴蜀麻辣燙-台南東寧店",
    "date": "2016-06-08T15:00:01.128Z"
  },
  {
    "visit": 169,
    "longitude": 120.24263749071,
    "latitude": 23.043689602214,
    "name": "桂田酒店－阿力海百匯自助餐廳",
    "date": "2016-06-08T15:00:01.128Z"
  },
  {
    "visit": 178,
    "longitude": 120.19935552132,
    "latitude": 22.987762026228,
    "name": "Silks Place Tainan 台南晶英酒店",
    "date": "2016-06-08T15:00:01.128Z"
  },
  {
    "visit": 179,
    "longitude": 120.2217902,
    "latitude": 22.9799581,
    "name": "德光監獄大牢",
    "date": "2016-06-08T15:00:01.128Z"
  },
  {
    "visit": 191,
    "longitude": 120.21429077317,
    "latitude": 22.996495579963,
    "name": "Shangri-La Tainan 香格里拉台南遠東國際大飯店",
    "date": "2016-06-08T15:00:01.128Z"
  },
  {
    "visit": 194,
    "longitude": 120.21643000519,
    "latitude": 23.000119669706,
    "name": "成大榕園",
    "date": "2016-06-08T15:00:01.128Z"
  },
  {
    "visit": 197,
    "longitude": 120.20618754185,
    "latitude": 22.995549850652,
    "name": "台南大遠百-華納威秀",
    "date": "2016-06-08T15:00:01.128Z"
  },
  {
    "visit": 198,
    "longitude": 120.23961050123,
    "latitude": 22.989735527308,
    "name": "慈幼工商",
    "date": "2016-06-08T15:00:01.128Z"
  },
  {
    "visit": 206,
    "longitude": 120.19858368,
    "latitude": 22.98767847,
    "name": "稻禾烏龍麵inaka-台南新光三越小西門店",
    "date": "2016-06-08T15:00:01.128Z"
  },
  {
    "visit": 207,
    "longitude": 120.19863961208,
    "latitude": 22.987050210035,
    "name": "新光三越 台南西門店",
    "date": "2016-06-08T15:00:01.128Z"
  },
  {
    "visit": 213,
    "longitude": 120.22155555556,
    "latitude": 22.974833333333,
    "name": "Tainan Municipal Cultural Center",
    "date": "2016-06-08T15:00:01.128Z"
  },
  {
    "visit": 268,
    "longitude": 120.23308607346,
    "latitude": 22.990726758622,
    "name": "南紡夢時代-華納影城",
    "date": "2016-06-08T15:00:01.128Z"
  },
  {
    "visit": 274,
    "longitude": 120.22190494667,
    "latitude": 23.020507384629,
    "name": "永康奇美醫院",
    "date": "2016-06-08T15:00:01.128Z"
  },
  {
    "visit": 279,
    "longitude": 120.22338397002,
    "latitude": 22.998657955329,
    "name": "國立成功大學自強校區",
    "date": "2016-06-08T15:00:01.128Z"
  },
  {
    "visit": 291,
    "longitude": 120.21215,
    "latitude": 22.98035,
    "name": "栗子咖啡屋",
    "date": "2016-06-08T15:00:01.128Z"
  },
  {
    "visit": 319,
    "longitude": 120.1876511,
    "latitude": 22.9890909,
    "name": "Omaya春川炒雞台南永華店",
    "date": "2016-06-08T15:00:01.128Z"
  }
]