[
  {
    "visit": 1,
    "longitude": 120.2020721,
    "latitude": 23.0013294,
    "name": "立人國小",
    "date": "2016-06-14T14:30:01.906Z"
  },
  {
    "visit": 1,
    "longitude": 120.21095,
    "latitude": 22.99473,
    "name": "麻吉的店(複合式餐飲)",
    "date": "2016-06-13T14:30:01.607Z"
  },
  {
    "visit": 1,
    "longitude": 120.21023103481,
    "latitude": 22.995738523998,
    "name": "Focus 綠蓋茶•館",
    "date": "2016-06-14T14:30:01.906Z"
  },
  {
    "visit": 1,
    "longitude": 120.4818651,
    "latitude": 22.8847851,
    "name": "旗山老街火車站",
    "date": "2016-06-14T14:30:01.906Z"
  },
  {
    "visit": 1,
    "longitude": 120.48119425994,
    "latitude": 22.8877135449,
    "name": "旗山體育場",
    "date": "2016-06-14T14:30:01.906Z"
  },
  {
    "visit": 1,
    "longitude": 120.19248,
    "latitude": 22.99099,
    "name": "台中鵝肉",
    "date": "2016-06-14T14:30:01.906Z"
  },
  {
    "visit": 1,
    "longitude": 120.17490645118,
    "latitude": 22.998079110914,
    "name": "台南安平周式煆捲",
    "date": "2016-06-14T14:30:01.906Z"
  },
  {
    "visit": 1,
    "longitude": 120.29771856161,
    "latitude": 23.127657065826,
    "name": "善化夜市",
    "date": "2016-06-14T14:30:01.906Z"
  },
  {
    "visit": 1,
    "longitude": 120.21058,
    "latitude": 22.99356,
    "name": "深呼吸運動會館",
    "date": "2016-06-14T14:30:01.906Z"
  },
  {
    "visit": 1,
    "longitude": 120.2167637,
    "latitude": 23.0074153,
    "name": "開元國小",
    "date": "2016-06-14T14:30:01.906Z"
  },
  {
    "visit": 1,
    "longitude": 120.18627,
    "latitude": 22.99187,
    "name": "台南市社會福利綜合大樓",
    "date": "2016-06-14T14:30:01.906Z"
  },
  {
    "visit": 1,
    "longitude": 120.19152027,
    "latitude": 22.981854910916,
    "name": "85度c咖啡蛋糕烘焙專賣店",
    "date": "2016-06-14T14:30:01.906Z"
  },
  {
    "visit": 1,
    "longitude": 120.22123,
    "latitude": 22.9956299,
    "name": "KAFFE at HOME",
    "date": "2016-06-14T14:30:01.906Z"
  },
  {
    "visit": 1,
    "longitude": 120.19998,
    "latitude": 23.00013,
    "name": "丹丹漢堡成功店",
    "date": "2016-06-14T14:30:01.906Z"
  },
  {
    "visit": 1,
    "longitude": 120.2101593,
    "latitude": 22.9956303,
    "name": "Focus 11F 二鍋(壽喜燒)",
    "date": "2016-06-14T14:30:01.906Z"
  },
  {
    "visit": 1,
    "longitude": 120.19949022102,
    "latitude": 22.995107637143,
    "name": "花見宇治抹茶甘味処",
    "date": "2016-06-14T14:30:01.906Z"
  },
  {
    "visit": 1,
    "longitude": 120.19841,
    "latitude": 22.99398,
    "name": "JJ-W Hotel",
    "date": "2016-06-14T14:30:01.906Z"
  },
  {
    "visit": 2,
    "longitude": 120.16316,
    "latitude": 22.99977,
    "name": "周氏蝦卷",
    "date": "2016-06-14T14:30:01.906Z"
  },
  {
    "visit": 2,
    "longitude": 120.19568,
    "latitude": 22.99061,
    "name": "南廠保安宮",
    "date": "2016-06-14T14:30:01.906Z"
  },
  {
    "visit": 2,
    "longitude": 120.19475,
    "latitude": 22.99307,
    "name": "W商務會館",
    "date": "2016-06-14T14:30:01.906Z"
  },
  {
    "visit": 2,
    "longitude": 120.20850574289,
    "latitude": 22.984945899305,
    "name": "台南大學雅音樓",
    "date": "2016-06-14T14:30:01.906Z"
  },
  {
    "visit": 2,
    "longitude": 120.20855970866,
    "latitude": 23.011058118089,
    "name": "米蘭時尚髮型集團總管理處&教育中心",
    "date": "2016-06-14T14:30:01.906Z"
  },
  {
    "visit": 2,
    "longitude": 120.21573445008,
    "latitude": 23.001581822725,
    "name": "MSGT成功大學綠色魔法學校",
    "date": "2016-06-14T14:30:01.906Z"
  },
  {
    "visit": 2,
    "longitude": 120.2094579,
    "latitude": 22.9956648,
    "name": "南方公園-森菓鯛魚燒霜淇淋",
    "date": "2016-06-14T14:30:01.906Z"
  },
  {
    "visit": 2,
    "longitude": 120.23667635759,
    "latitude": 23.00903285162,
    "name": "五王國民小學",
    "date": "2016-06-14T14:30:01.906Z"
  },
  {
    "visit": 2,
    "longitude": 120.17913393594,
    "latitude": 22.997524545472,
    "name": "南山人壽台南分公司",
    "date": "2016-06-14T14:30:01.906Z"
  },
  {
    "visit": 2,
    "longitude": 120.186338,
    "latitude": 22.9854133,
    "name": "台南南區",
    "date": "2016-06-14T14:30:01.906Z"
  },
  {
    "visit": 2,
    "longitude": 120.21200062511,
    "latitude": 22.99715067333,
    "name": "臺南火車站",
    "date": "2016-06-14T14:30:01.906Z"
  },
  {
    "visit": 2,
    "longitude": 120.21456,
    "latitude": 22.99382,
    "name": "AJ Burger美式餐廳",
    "date": "2016-06-14T14:30:01.906Z"
  },
  {
    "visit": 2,
    "longitude": 120.22614,
    "latitude": 22.99212,
    "name": "九分十刻西式新料理",
    "date": "2016-06-14T14:30:01.906Z"
  },
  {
    "visit": 2,
    "longitude": 120.25168441453,
    "latitude": 22.99871999678,
    "name": "異人館咖啡部屋 崑山店",
    "date": "2016-06-14T14:30:01.906Z"
  },
  {
    "visit": 2,
    "longitude": 120.20790586704,
    "latitude": 22.990283538178,
    "name": "順風號",
    "date": "2016-06-14T14:30:01.906Z"
  },
  {
    "visit": 2,
    "longitude": 120.21793,
    "latitude": 22.9917,
    "name": "波哥茶飲(台南勝利店)",
    "date": "2016-06-14T14:30:01.906Z"
  },
  {
    "visit": 2,
    "longitude": 120.29213118231,
    "latitude": 23.076920273762,
    "name": "新市夜市",
    "date": "2016-06-14T14:30:01.906Z"
  },
  {
    "visit": 2,
    "longitude": 120.21887314804,
    "latitude": 22.982815914296,
    "name": "台南大東夜市❤E.M❤",
    "date": "2016-06-14T14:30:01.906Z"
  },
  {
    "visit": 2,
    "longitude": 120.221138,
    "latitude": 22.9953194,
    "name": "轉角餐廳 Corner Steak House",
    "date": "2016-06-14T14:30:01.906Z"
  },
  {
    "visit": 2,
    "longitude": 120.2661,
    "latitude": 23.0133,
    "name": "台南市永康區大灣",
    "date": "2016-06-14T14:30:01.906Z"
  },
  {
    "visit": 3,
    "longitude": 120.20940420105,
    "latitude": 23.002125608966,
    "name": "台南中山公園捐血站",
    "date": "2016-06-14T14:30:01.906Z"
  },
  {
    "visit": 3,
    "longitude": 120.1864651,
    "latitude": 22.9985868,
    "name": "台南大舞廳",
    "date": "2016-06-14T14:30:01.906Z"
  },
  {
    "visit": 3,
    "longitude": 120.19763413239,
    "latitude": 22.993611368859,
    "name": "Chiuanhouse",
    "date": "2016-06-14T14:30:01.906Z"
  },
  {
    "visit": 3,
    "longitude": 120.22100732643,
    "latitude": 22.990755954617,
    "name": "飛饗創意西式料理-旗艦總店",
    "date": "2016-06-14T14:30:01.906Z"
  },
  {
    "visit": 3,
    "longitude": 120.22693805104,
    "latitude": 23.002116403526,
    "name": "永林牛肉火鍋 台灣台南美食綜合料理 Tainan, Taiwan Local Delicious food: Yonlin Restaurant",
    "date": "2016-06-14T14:30:01.906Z"
  },
  {
    "visit": 3,
    "longitude": 120.21083,
    "latitude": 22.99715,
    "name": "台南大飯店 Hotel Tainan",
    "date": "2016-06-14T14:30:01.906Z"
  },
  {
    "visit": 3,
    "longitude": 120.21253823351,
    "latitude": 22.99895734514,
    "name": "統聯客運 北門站",
    "date": "2016-06-14T14:30:01.906Z"
  },
  {
    "visit": 3,
    "longitude": 120.22101,
    "latitude": 22.9951,
    "name": "Noah's ark 諾亞方舟主廚餐廳",
    "date": "2016-06-14T14:30:01.906Z"
  },
  {
    "visit": 3,
    "longitude": 120.16294,
    "latitude": 23.00068,
    "name": "永泰興蜜餞行",
    "date": "2016-06-14T14:30:01.906Z"
  },
  {
    "visit": 3,
    "longitude": 120.240435,
    "latitude": 22.997231,
    "name": "永康復興彩虹眷村",
    "date": "2016-06-14T14:30:01.906Z"
  },
  {
    "visit": 3,
    "longitude": 120.20767115689,
    "latitude": 22.98325435023,
    "name": "台南大學操場",
    "date": "2016-06-14T14:30:01.906Z"
  },
  {
    "visit": 3,
    "longitude": 120.22355826271,
    "latitude": 22.999363759867,
    "name": "成大自強校區",
    "date": "2016-06-14T14:30:01.906Z"
  },
  {
    "visit": 3,
    "longitude": 120.28198967959,
    "latitude": 23.098611597355,
    "name": "Park17",
    "date": "2016-06-14T14:30:01.906Z"
  },
  {
    "visit": 3,
    "longitude": 120.20546,
    "latitude": 22.98454,
    "name": "波哥三店（南寧街）",
    "date": "2016-06-14T14:30:01.906Z"
  },
  {
    "visit": 3,
    "longitude": 120.22675735848,
    "latitude": 22.969023773846,
    "name": "台南市立醫院急診室",
    "date": "2016-06-14T14:30:01.906Z"
  },
  {
    "visit": 3,
    "longitude": 120.235154067,
    "latitude": 23.003941326251,
    "name": "爭鮮迴轉寿司 Sushi Express 中華店",
    "date": "2016-06-14T14:30:01.906Z"
  },
  {
    "visit": 4,
    "longitude": 120.08332497859,
    "latitude": 23.218327424711,
    "name": "馬沙溝濱海遊憩區",
    "date": "2016-06-14T14:30:01.906Z"
  },
  {
    "visit": 4,
    "longitude": 120.22279,
    "latitude": 22.97962,
    "name": "加州廚房",
    "date": "2016-06-14T14:30:01.906Z"
  },
  {
    "visit": 4,
    "longitude": 120.30165258872,
    "latitude": 23.077691096642,
    "name": "Dartwits Dormitory No.1 Guoji Road Shinsi District Tainan City Taiwan",
    "date": "2016-06-14T14:30:01.906Z"
  },
  {
    "visit": 4,
    "longitude": 120.25556446568,
    "latitude": 23.025382654581,
    "name": "永康麥當勞中山店",
    "date": "2016-06-14T14:30:01.906Z"
  },
  {
    "visit": 4,
    "longitude": 120.19726951584,
    "latitude": 22.994355840866,
    "name": "蜷尾家 甘味处。。。散步甜食",
    "date": "2016-06-14T14:30:01.906Z"
  },
  {
    "visit": 4,
    "longitude": 120.25086971588,
    "latitude": 23.03161715053,
    "name": "台南永康歐洲世界",
    "date": "2016-06-14T14:30:01.906Z"
  },
  {
    "visit": 4,
    "longitude": 120.22685895897,
    "latitude": 22.998394782262,
    "name": "夫妻肺片-台南東和店",
    "date": "2016-06-14T14:30:01.906Z"
  },
  {
    "visit": 4,
    "longitude": 120.22091,
    "latitude": 22.97639,
    "name": "老婆的菜",
    "date": "2016-06-14T14:30:01.906Z"
  },
  {
    "visit": 4,
    "longitude": 120.26107,
    "latitude": 23.01991,
    "name": "大成釣蝦",
    "date": "2016-06-14T14:30:01.906Z"
  },
  {
    "visit": 4,
    "longitude": 120.2217,
    "latitude": 22.97604,
    "name": "三皇三家崇明店",
    "date": "2016-06-14T14:30:01.906Z"
  },
  {
    "visit": 4,
    "longitude": 120.2394779792,
    "latitude": 23.03683027415,
    "name": "台南應用科技大學 LT大樓",
    "date": "2016-06-14T14:30:01.906Z"
  },
  {
    "visit": 4,
    "longitude": 120.20232,
    "latitude": 22.99911,
    "name": "彩虹日本料理",
    "date": "2016-06-14T14:30:01.906Z"
  },
  {
    "visit": 5,
    "longitude": 120.22057687337,
    "latitude": 22.9922225016,
    "name": "韓朝 東寧店",
    "date": "2016-06-14T14:30:01.906Z"
  },
  {
    "visit": 5,
    "longitude": 120.14699658705,
    "latitude": 22.989819453777,
    "name": "安平觀夕平台 Anping Sunset Platform",
    "date": "2016-06-14T14:30:01.906Z"
  },
  {
    "visit": 5,
    "longitude": 120.22571941866,
    "latitude": 23.006471724229,
    "name": "南園街鍋貼",
    "date": "2016-06-14T14:30:01.906Z"
  },
  {
    "visit": 5,
    "longitude": 120.2185917305,
    "latitude": 22.988758918,
    "name": "勝利國小",
    "date": "2016-06-14T14:30:01.906Z"
  },
  {
    "visit": 5,
    "longitude": 120.17125893886,
    "latitude": 22.990979544767,
    "name": "星巴克-永華國平",
    "date": "2016-06-14T14:30:01.906Z"
  },
  {
    "visit": 5,
    "longitude": 120.2625961,
    "latitude": 23.1894474,
    "name": "國立曾文高級農工職業學校",
    "date": "2016-06-14T14:30:01.906Z"
  },
  {
    "visit": 5,
    "longitude": 120.22342,
    "latitude": 22.9935,
    "name": "開普三號店 CAPE CAFE 3",
    "date": "2016-06-14T14:30:01.906Z"
  },
  {
    "visit": 5,
    "longitude": 120.18736958314,
    "latitude": 23.008716228999,
    "name": "全家樂",
    "date": "2016-06-14T14:30:01.906Z"
  },
  {
    "visit": 5,
    "longitude": 120.22833,
    "latitude": 22.99349,
    "name": "Domo Pann 多麼胖咖啡東興店",
    "date": "2016-06-14T14:30:01.906Z"
  },
  {
    "visit": 5,
    "longitude": 120.18668,
    "latitude": 23.00243,
    "name": "宜得利家居",
    "date": "2016-06-14T14:30:01.906Z"
  },
  {
    "visit": 6,
    "longitude": 120.22494,
    "latitude": 23.02999,
    "name": "LEXUS台南所",
    "date": "2016-06-14T14:30:01.906Z"
  },
  {
    "visit": 6,
    "longitude": 120.17265,
    "latitude": 22.99114,
    "name": "Daylight光合箱子",
    "date": "2016-06-14T14:30:01.906Z"
  },
  {
    "visit": 6,
    "longitude": 120.213888889,
    "latitude": 22.9886111111,
    "name": "Tainan Theological College and Seminary",
    "date": "2016-06-14T14:30:01.906Z"
  },
  {
    "visit": 6,
    "longitude": 120.26184699061,
    "latitude": 23.18648820243,
    "name": "麻豆無名乾麵",
    "date": "2016-06-14T14:30:01.906Z"
  },
  {
    "visit": 7,
    "longitude": 120.20615,
    "latitude": 22.99836,
    "name": "大觀音亭",
    "date": "2016-06-14T14:30:01.906Z"
  },
  {
    "visit": 7,
    "longitude": 120.15774199652,
    "latitude": 22.994065245015,
    "name": "林默娘公園",
    "date": "2016-06-14T14:30:01.906Z"
  },
  {
    "visit": 7,
    "longitude": 120.20556460294,
    "latitude": 22.985204217647,
    "name": "Tainan City,taiwan ROC",
    "date": "2016-06-14T14:30:01.906Z"
  },
  {
    "visit": 7,
    "longitude": 120.20677690043,
    "latitude": 22.985030044598,
    "name": "台南大學文薈樓",
    "date": "2016-06-14T14:30:01.906Z"
  },
  {
    "visit": 7,
    "longitude": 120.2945524,
    "latitude": 23.078336,
    "name": "新市街上",
    "date": "2016-06-14T14:30:01.906Z"
  },
  {
    "visit": 7,
    "longitude": 120.24806508478,
    "latitude": 23.183110966778,
    "name": "台南巿麻豆區",
    "date": "2016-06-14T14:30:01.906Z"
  },
  {
    "visit": 7,
    "longitude": 120.2041,
    "latitude": 22.99374,
    "name": "台南天壇－天公廟",
    "date": "2016-06-14T14:30:01.906Z"
  },
  {
    "visit": 7,
    "longitude": 120.19499780736,
    "latitude": 22.985589537213,
    "name": "牽手海產攤",
    "date": "2016-06-14T14:30:01.906Z"
  },
  {
    "visit": 7,
    "longitude": 120.1986886,
    "latitude": 22.9882905,
    "name": "台南晶英酒店",
    "date": "2016-06-14T14:30:01.906Z"
  },
  {
    "visit": 7,
    "longitude": 120.25833909,
    "latitude": 23.03247518,
    "name": "永康 龍潭",
    "date": "2016-06-14T14:30:01.906Z"
  },
  {
    "visit": 7,
    "longitude": 120.19147197998,
    "latitude": 22.980443145573,
    "name": "石二鍋台南金華店",
    "date": "2016-06-14T14:30:01.906Z"
  },
  {
    "visit": 7,
    "longitude": 120.19909216516,
    "latitude": 22.988003531664,
    "name": "晶英酒店 Robin's 牛排屋",
    "date": "2016-06-14T14:30:01.906Z"
  },
  {
    "visit": 8,
    "longitude": 120.26083,
    "latitude": 23.02775,
    "name": "三角窗海鮮碳烤",
    "date": "2016-06-14T14:30:01.906Z"
  },
  {
    "visit": 8,
    "longitude": 120.20517827393,
    "latitude": 22.982567423057,
    "name": "懷舊小棧 - 五妃廟口豆腐冰",
    "date": "2016-06-14T14:30:01.906Z"
  },
  {
    "visit": 8,
    "longitude": 120.18360389376,
    "latitude": 22.992389479062,
    "name": "台南市政府西側廣場",
    "date": "2016-06-14T14:30:01.906Z"
  },
  {
    "visit": 8,
    "longitude": 120.20962796203,
    "latitude": 22.994846496922,
    "name": "Dazzling蜜糖吐司",
    "date": "2016-06-14T14:30:01.906Z"
  },
  {
    "visit": 8,
    "longitude": 120.22109105269,
    "latitude": 22.982336017913,
    "name": "銀座日式料理",
    "date": "2016-06-14T14:30:01.906Z"
  },
  {
    "visit": 8,
    "longitude": 120.20792,
    "latitude": 23.0147,
    "name": "　花園釣蝦場",
    "date": "2016-06-14T14:30:01.906Z"
  },
  {
    "visit": 8,
    "longitude": 120.25358891503,
    "latitude": 23.038462654754,
    "name": "永康火車站 Yongkang Station",
    "date": "2016-06-14T14:30:01.906Z"
  },
  {
    "visit": 8,
    "longitude": 120.30747,
    "latitude": 23.0378599,
    "name": "楊逵文學紀念館",
    "date": "2016-06-14T14:30:01.906Z"
  },
  {
    "visit": 8,
    "longitude": 120.210877855,
    "latitude": 22.99504133,
    "name": "D.D BEAR",
    "date": "2016-06-14T14:30:01.906Z"
  },
  {
    "visit": 8,
    "longitude": 120.19200472423,
    "latitude": 22.996777059331,
    "name": "富邦金融中心",
    "date": "2016-06-14T14:30:01.906Z"
  },
  {
    "visit": 8,
    "longitude": 120.20991032661,
    "latitude": 22.991609595046,
    "name": "東菜市場",
    "date": "2016-06-14T14:30:01.906Z"
  },
  {
    "visit": 8,
    "longitude": 120.23961050123,
    "latitude": 22.989735527308,
    "name": "慈幼工商",
    "date": "2016-06-14T14:30:01.906Z"
  },
  {
    "visit": 9,
    "longitude": 120.20127,
    "latitude": 23.00955,
    "name": "席瑪朵珈琲烘焙棧 Cermado cafe",
    "date": "2016-06-14T14:30:01.906Z"
  },
  {
    "visit": 9,
    "longitude": 120.1879653,
    "latitude": 23.0077551,
    "name": "天成複合式釣蝦埸",
    "date": "2016-06-14T14:30:01.906Z"
  },
  {
    "visit": 9,
    "longitude": 120.21313,
    "latitude": 22.99242,
    "name": "臺南知事官邸",
    "date": "2016-06-14T14:30:01.906Z"
  },
  {
    "visit": 9,
    "longitude": 120.18852694815,
    "latitude": 22.981994586715,
    "name": "春喜燒烤",
    "date": "2016-06-14T14:30:01.906Z"
  },
  {
    "visit": 9,
    "longitude": 120.21405833306,
    "latitude": 22.996547619391,
    "name": "台南香格里拉10樓遠東咖啡廳",
    "date": "2016-06-14T14:30:01.906Z"
  },
  {
    "visit": 9,
    "longitude": 120.20705,
    "latitude": 22.99271,
    "name": "OA Studio",
    "date": "2016-06-14T14:30:01.906Z"
  },
  {
    "visit": 9,
    "longitude": 120.18658900007,
    "latitude": 22.986884329,
    "name": "輕井澤鍋物 台南店",
    "date": "2016-06-14T14:30:01.906Z"
  },
  {
    "visit": 9,
    "longitude": 120.21672,
    "latitude": 22.9956299,
    "name": "瘋牛排洋食Fun Steak",
    "date": "2016-06-14T14:30:01.906Z"
  },
  {
    "visit": 9,
    "longitude": 120.22115555556,
    "latitude": 22.991069444444,
    "name": "臺南市私立長榮女子高級中學",
    "date": "2016-06-14T14:30:01.906Z"
  },
  {
    "visit": 9,
    "longitude": 120.1976860957,
    "latitude": 22.993864149254,
    "name": "國華街淺草青春新天地",
    "date": "2016-06-14T14:30:01.906Z"
  },
  {
    "visit": 10,
    "longitude": 120.22185559466,
    "latitude": 22.989340099854,
    "name": "私立長榮高級中學 Chang Jung Senior High School",
    "date": "2016-06-14T14:30:01.906Z"
  },
  {
    "visit": 10,
    "longitude": 120.20507,
    "latitude": 22.98997,
    "name": "台南府中街保哥炒泡麵",
    "date": "2016-06-14T14:30:01.906Z"
  },
  {
    "visit": 10,
    "longitude": 120.1862869,
    "latitude": 22.9779606,
    "name": "是吉祥火鍋",
    "date": "2016-06-14T14:30:01.906Z"
  },
  {
    "visit": 10,
    "longitude": 120.16894397748,
    "latitude": 22.998947854139,
    "name": "王氏魚皮",
    "date": "2016-06-14T14:30:01.906Z"
  },
  {
    "visit": 10,
    "longitude": 120.48328,
    "latitude": 22.88069,
    "name": "行政院衛生署旗山醫院",
    "date": "2016-06-14T14:30:01.906Z"
  },
  {
    "visit": 10,
    "longitude": 120.29257802436,
    "latitude": 23.128567734273,
    "name": "Mcdonald's麥當勞善化店",
    "date": "2016-06-14T14:30:01.906Z"
  },
  {
    "visit": 10,
    "longitude": 120.23336128088,
    "latitude": 22.993401503218,
    "name": "Golden Bowling 黃金保齡球場",
    "date": "2016-06-14T14:30:01.906Z"
  },
  {
    "visit": 11,
    "longitude": 120.22290319611,
    "latitude": 22.977009012109,
    "name": "台南崇德市場",
    "date": "2016-06-14T14:30:01.906Z"
  },
  {
    "visit": 11,
    "longitude": 120.24905343722,
    "latitude": 23.18532065,
    "name": "麻豆菜市場",
    "date": "2016-06-14T14:30:01.906Z"
  },
  {
    "visit": 11,
    "longitude": 120.23068,
    "latitude": 22.99057,
    "name": "東光國小",
    "date": "2016-06-14T14:30:01.906Z"
  },
  {
    "visit": 11,
    "longitude": 120.2178192,
    "latitude": 22.9795609,
    "name": "維達都會生活俱樂部 La Vida Health Club",
    "date": "2016-06-14T14:30:01.906Z"
  },
  {
    "visit": 11,
    "longitude": 120.18272543922,
    "latitude": 22.98957672629,
    "name": "佛光山南台別院",
    "date": "2016-06-14T14:30:01.906Z"
  },
  {
    "visit": 11,
    "longitude": 120.2331082478,
    "latitude": 22.990812924633,
    "name": "藍屋おいや和風御膳-南紡夢時代",
    "date": "2016-06-14T14:30:01.906Z"
  },
  {
    "visit": 12,
    "longitude": 120.2041,
    "latitude": 22.99374,
    "name": "台灣首廟天壇天公廟",
    "date": "2016-06-14T14:30:01.906Z"
  },
  {
    "visit": 13,
    "longitude": 120.2336752,
    "latitude": 22.9912468,
    "name": "跳舞香水 南紡夢時代",
    "date": "2016-06-14T14:30:01.906Z"
  },
  {
    "visit": 13,
    "longitude": 120.21016,
    "latitude": 22.9956299,
    "name": "Focus湯姆熊",
    "date": "2016-06-14T14:30:01.906Z"
  },
  {
    "visit": 14,
    "longitude": 120.21560359044,
    "latitude": 22.997793962917,
    "name": "NCKU光復校區 成功廳",
    "date": "2016-06-14T14:30:01.906Z"
  },
  {
    "visit": 14,
    "longitude": 120.228,
    "latitude": 22.98987,
    "name": "俗俗賣芒果牛奶冰",
    "date": "2016-06-14T14:30:01.906Z"
  },
  {
    "visit": 14,
    "longitude": 120.18925633512,
    "latitude": 22.989678207079,
    "name": "神田日本料理",
    "date": "2016-06-14T14:30:01.906Z"
  },
  {
    "visit": 15,
    "longitude": 120.22107832478,
    "latitude": 23.024788077567,
    "name": "Golden Brother's Dormit0ry",
    "date": "2016-06-14T14:30:01.906Z"
  },
  {
    "visit": 15,
    "longitude": 120.23124014952,
    "latitude": 23.008689449674,
    "name": "家樂福 台南中華店",
    "date": "2016-06-14T14:30:01.906Z"
  },
  {
    "visit": 15,
    "longitude": 120.21921,
    "latitude": 23.0021999,
    "name": "成大醫院急診部",
    "date": "2016-06-14T14:30:01.906Z"
  },
  {
    "visit": 16,
    "longitude": 120.28927963022,
    "latitude": 23.13676743634,
    "name": "善化多功能活動中心",
    "date": "2016-06-14T14:30:01.906Z"
  },
  {
    "visit": 16,
    "longitude": 120.24300606489,
    "latitude": 23.044154403478,
    "name": "桂田酒店國際宴會廳",
    "date": "2016-06-14T14:30:01.906Z"
  },
  {
    "visit": 17,
    "longitude": 120.19637416831,
    "latitude": 22.997658165585,
    "name": "神農街",
    "date": "2016-06-14T14:30:01.906Z"
  },
  {
    "visit": 17,
    "longitude": 120.21779401825,
    "latitude": 22.9916940677,
    "name": "Mr. 拉麵",
    "date": "2016-06-14T14:30:01.906Z"
  },
  {
    "visit": 17,
    "longitude": 120.1680442,
    "latitude": 22.9865629,
    "name": "In STYLE hair studio",
    "date": "2016-06-14T14:30:01.906Z"
  },
  {
    "visit": 17,
    "longitude": 120.26068363488,
    "latitude": 23.027670026131,
    "name": "台南市永康區",
    "date": "2016-06-14T14:30:01.906Z"
  },
  {
    "visit": 17,
    "longitude": 120.18707872014,
    "latitude": 22.982340517677,
    "name": "北京麻辣鴛鴦火鍋",
    "date": "2016-06-14T14:30:01.906Z"
  },
  {
    "visit": 18,
    "longitude": 120.21526,
    "latitude": 22.98879,
    "name": "毛丼 丼飯專門店",
    "date": "2016-06-14T14:30:01.906Z"
  },
  {
    "visit": 19,
    "longitude": 120.22853,
    "latitude": 23.03277,
    "name": "家樂福",
    "date": "2016-06-14T14:30:01.906Z"
  },
  {
    "visit": 19,
    "longitude": 120.21281128346,
    "latitude": 22.996978888208,
    "name": "台南火車站",
    "date": "2016-06-14T14:30:01.906Z"
  },
  {
    "visit": 19,
    "longitude": 120.25188,
    "latitude": 23.02915,
    "name": "聯盈發點心專門店",
    "date": "2016-06-14T14:30:01.906Z"
  },
  {
    "visit": 20,
    "longitude": 120.20204,
    "latitude": 22.99692,
    "name": "山根壽司",
    "date": "2016-06-14T14:30:01.906Z"
  },
  {
    "visit": 20,
    "longitude": 120.30115,
    "latitude": 23.13081,
    "name": "老胡記",
    "date": "2016-06-14T14:30:01.906Z"
  },
  {
    "visit": 21,
    "longitude": 120.24409461827,
    "latitude": 22.989786633582,
    "name": "Starbucks星巴克典藏門市-虎尾寮",
    "date": "2016-06-14T14:30:01.906Z"
  },
  {
    "visit": 22,
    "longitude": 120.16729,
    "latitude": 22.99894,
    "name": "安平古堡",
    "date": "2016-06-14T14:30:01.906Z"
  },
  {
    "visit": 22,
    "longitude": 120.18938,
    "latitude": 22.9973,
    "name": "新臨安橋-台南彩虹橋",
    "date": "2016-06-14T14:30:01.906Z"
  },
  {
    "visit": 22,
    "longitude": 120.29456,
    "latitude": 23.07543,
    "name": "新市區多功能活動中心",
    "date": "2016-06-14T14:30:01.906Z"
  },
  {
    "visit": 22,
    "longitude": 120.20330585737,
    "latitude": 22.99017825645,
    "name": "台南市立忠義國小",
    "date": "2016-06-14T14:30:01.906Z"
  },
  {
    "visit": 23,
    "longitude": 120.19882,
    "latitude": 22.99764,
    "name": "阿松割包",
    "date": "2016-06-14T14:30:01.906Z"
  },
  {
    "visit": 24,
    "longitude": 120.214758,
    "latitude": 22.9937616,
    "name": "黑工號 嫩仙草",
    "date": "2016-06-14T14:30:01.906Z"
  },
  {
    "visit": 24,
    "longitude": 120.22136083815,
    "latitude": 22.9740211,
    "name": "德安百貨春水堂",
    "date": "2016-06-14T14:30:01.906Z"
  },
  {
    "visit": 24,
    "longitude": 120.16086967485,
    "latitude": 23.000506180217,
    "name": "安平開台天后宮",
    "date": "2016-06-14T14:30:01.906Z"
  },
  {
    "visit": 25,
    "longitude": 120.18606,
    "latitude": 23.00647,
    "name": "星巴克-湖美門市",
    "date": "2016-06-14T14:30:01.906Z"
  },
  {
    "visit": 25,
    "longitude": 120.22760205909,
    "latitude": 22.968558342231,
    "name": "崇文里暨崇成里聯合活動中心",
    "date": "2016-06-14T14:30:01.906Z"
  },
  {
    "visit": 26,
    "longitude": 120.23709244251,
    "latitude": 23.041052155021,
    "name": "鹽行",
    "date": "2016-06-14T14:30:01.906Z"
  },
  {
    "visit": 26,
    "longitude": 120.24821,
    "latitude": 23.18378,
    "name": "阿榮牛肉湯",
    "date": "2016-06-14T14:30:01.906Z"
  },
  {
    "visit": 26,
    "longitude": 120.2192078,
    "latitude": 23.0021992,
    "name": "成大醫院",
    "date": "2016-06-14T14:30:01.906Z"
  },
  {
    "visit": 27,
    "longitude": 120.2402,
    "latitude": 22.99803,
    "name": "復興老兵文化園區",
    "date": "2016-06-14T14:30:01.906Z"
  },
  {
    "visit": 28,
    "longitude": 120.22122417549,
    "latitude": 22.973993912762,
    "name": "健身工廠（德安廠）",
    "date": "2016-06-14T14:30:01.906Z"
  },
  {
    "visit": 29,
    "longitude": 120.1873587747,
    "latitude": 23.008733116034,
    "name": "全家樂釣蝦場",
    "date": "2016-06-14T14:30:01.906Z"
  },
  {
    "visit": 29,
    "longitude": 120.17639601102,
    "latitude": 22.994800056633,
    "name": "安平國小",
    "date": "2016-06-14T14:30:01.906Z"
  },
  {
    "visit": 29,
    "longitude": 120.22145724028,
    "latitude": 22.975077761533,
    "name": "台南市立文化中心演藝廳",
    "date": "2016-06-14T14:30:01.906Z"
  },
  {
    "visit": 30,
    "longitude": 120.20123039561,
    "latitude": 22.999763941558,
    "name": "劉家肉粽",
    "date": "2016-06-14T14:30:01.906Z"
  },
  {
    "visit": 30,
    "longitude": 120.19652951454,
    "latitude": 23.042438796992,
    "name": "台南安南區",
    "date": "2016-06-14T14:30:01.906Z"
  },
  {
    "visit": 32,
    "longitude": 120.2342704,
    "latitude": 22.9965006,
    "name": "世界健身俱樂部（國賓館）",
    "date": "2016-06-14T14:30:01.906Z"
  },
  {
    "visit": 32,
    "longitude": 120.19508,
    "latitude": 22.98783,
    "name": "東京益田日本料理",
    "date": "2016-06-14T14:30:01.906Z"
  },
  {
    "visit": 33,
    "longitude": 120.19794,
    "latitude": 22.98834,
    "name": "錢櫃KTV台南店",
    "date": "2016-06-14T14:30:01.906Z"
  },
  {
    "visit": 34,
    "longitude": 120.1782,
    "latitude": 23.16043,
    "name": "佳里麥當勞",
    "date": "2016-06-14T14:30:01.906Z"
  },
  {
    "visit": 34,
    "longitude": 120.19343913971,
    "latitude": 23.010363926672,
    "name": "Costco 台南店",
    "date": "2016-06-14T14:30:01.906Z"
  },
  {
    "visit": 35,
    "longitude": 120.18755435944,
    "latitude": 22.989054217213,
    "name": "石頭燒肉（永華館）",
    "date": "2016-06-14T14:30:01.906Z"
  },
  {
    "visit": 35,
    "longitude": 120.21306038132,
    "latitude": 22.989398637653,
    "name": "Tainan Sin Lau hospital",
    "date": "2016-06-14T14:30:01.906Z"
  },
  {
    "visit": 37,
    "longitude": 120.18773261116,
    "latitude": 23.007500481868,
    "name": "天成複合式主題館",
    "date": "2016-06-14T14:30:01.906Z"
  },
  {
    "visit": 39,
    "longitude": 120.19935552132,
    "latitude": 22.987762026228,
    "name": "Silks Place Tainan 台南晶英酒店",
    "date": "2016-06-14T14:30:01.906Z"
  },
  {
    "visit": 39,
    "longitude": 120.21846061554,
    "latitude": 22.995345825567,
    "name": "鬥牛士二鍋成大店",
    "date": "2016-06-14T14:30:01.906Z"
  },
  {
    "visit": 39,
    "longitude": 120.1474464754,
    "latitude": 22.997215896129,
    "name": "海之味海產餐廳 - 旗艦店",
    "date": "2016-06-14T14:30:01.906Z"
  },
  {
    "visit": 39,
    "longitude": 120.22554715615,
    "latitude": 22.934710000308,
    "name": "台南白宮～奇美博物館",
    "date": "2016-06-14T14:30:01.906Z"
  },
  {
    "visit": 40,
    "longitude": 120.23442406386,
    "latitude": 23.007290845601,
    "name": "Bk板塊牛排中華店",
    "date": "2016-06-14T14:30:01.906Z"
  },
  {
    "visit": 41,
    "longitude": 120.2100688535,
    "latitude": 22.995789099976,
    "name": "Focus時尚流行館",
    "date": "2016-06-14T14:30:01.906Z"
  },
  {
    "visit": 42,
    "longitude": 120.20195563603,
    "latitude": 23.002995059302,
    "name": "夏慕尼公園店",
    "date": "2016-06-14T14:30:01.906Z"
  },
  {
    "visit": 42,
    "longitude": 120.18932,
    "latitude": 22.99203,
    "name": "多一點咖啡館-台南美學館-品牌特許授權店",
    "date": "2016-06-14T14:30:01.906Z"
  },
  {
    "visit": 42,
    "longitude": 120.19995,
    "latitude": 22.9989,
    "name": "開基共善堂",
    "date": "2016-06-14T14:30:01.906Z"
  },
  {
    "visit": 42,
    "longitude": 120.19821037581,
    "latitude": 22.98739150113,
    "name": "台南新光三越新天地-新光影城",
    "date": "2016-06-14T14:30:01.906Z"
  },
  {
    "visit": 44,
    "longitude": 120.20693,
    "latitude": 22.99993,
    "name": "台南玉皇宮天公廟",
    "date": "2016-06-14T14:30:01.906Z"
  },
  {
    "visit": 44,
    "longitude": 120.21332403897,
    "latitude": 23.003999193997,
    "name": "野宴日式炭火燒肉-北門店",
    "date": "2016-06-14T14:30:01.906Z"
  },
  {
    "visit": 44,
    "longitude": 120.22841,
    "latitude": 22.98018,
    "name": "婦兒安婦幼中心",
    "date": "2016-06-14T14:30:01.906Z"
  },
  {
    "visit": 44,
    "longitude": 120.18637,
    "latitude": 22.98283,
    "name": "台南極鮮火鍋中華西路店",
    "date": "2016-06-14T14:30:01.906Z"
  },
  {
    "visit": 46,
    "longitude": 120.17548199013,
    "latitude": 22.989375910681,
    "name": "台南市安平區",
    "date": "2016-06-14T14:30:01.906Z"
  },
  {
    "visit": 46,
    "longitude": 120.14690225407,
    "latitude": 22.990450444499,
    "name": "安平觀汐平台",
    "date": "2016-06-14T14:30:01.906Z"
  },
  {
    "visit": 46,
    "longitude": 120.21818488133,
    "latitude": 23.002205663651,
    "name": "台南成大醫院",
    "date": "2016-06-14T14:30:01.906Z"
  },
  {
    "visit": 48,
    "longitude": 120.28123884656,
    "latitude": 23.101277141171,
    "name": "南科總理大餐廳",
    "date": "2016-06-14T14:30:01.906Z"
  },
  {
    "visit": 48,
    "longitude": 120.22862,
    "latitude": 22.98999,
    "name": "萬客樓",
    "date": "2016-06-14T14:30:01.906Z"
  },
  {
    "visit": 49,
    "longitude": 120.23323059082,
    "latitude": 22.990839004517,
    "name": "牛角-南紡夢時代",
    "date": "2016-06-14T14:30:01.906Z"
  },
  {
    "visit": 51,
    "longitude": 120.22082,
    "latitude": 22.97444,
    "name": "長榮桂冠2樓吃遍天下",
    "date": "2016-06-14T14:30:01.906Z"
  },
  {
    "visit": 53,
    "longitude": 120.1971893,
    "latitude": 22.9944401,
    "name": "泰成水果店",
    "date": "2016-06-14T14:30:01.906Z"
  },
  {
    "visit": 54,
    "longitude": 120.2104,
    "latitude": 22.99464,
    "name": "西堤 Tasty (台南民族店)",
    "date": "2016-06-14T14:30:01.906Z"
  },
  {
    "visit": 59,
    "longitude": 120.20244094845,
    "latitude": 22.997256618115,
    "name": "台南市一級古蹟赤崁樓",
    "date": "2016-06-14T14:30:01.906Z"
  },
  {
    "visit": 60,
    "longitude": 120.18730048133,
    "latitude": 22.990860843203,
    "name": "台南生活美學館",
    "date": "2016-06-14T14:30:01.906Z"
  },
  {
    "visit": 65,
    "longitude": 120.19793,
    "latitude": 22.98777,
    "name": "Tayih Landis Hotel Tainan 台南大億麗緻酒店",
    "date": "2016-06-14T14:30:01.906Z"
  },
  {
    "visit": 67,
    "longitude": 120.16080528271,
    "latitude": 23.001228038111,
    "name": "台南市安平古堡&老街",
    "date": "2016-06-14T14:30:01.906Z"
  },
  {
    "visit": 76,
    "longitude": 120.20669,
    "latitude": 23.01232,
    "name": "千喜火鍋館",
    "date": "2016-06-14T14:30:01.906Z"
  },
  {
    "visit": 81,
    "longitude": 120.20981575793,
    "latitude": 22.995100521131,
    "name": "新光三越 台南中山店",
    "date": "2016-06-14T14:30:01.906Z"
  },
  {
    "visit": 81,
    "longitude": 120.23120798324,
    "latitude": 22.989133118867,
    "name": "老四川巴蜀麻辣燙-台南東寧店",
    "date": "2016-06-14T14:30:01.906Z"
  },
  {
    "visit": 82,
    "longitude": 120.18671904611,
    "latitude": 23.007568949352,
    "name": "和緯黃昏市場",
    "date": "2016-06-14T14:30:01.906Z"
  },
  {
    "visit": 86,
    "longitude": 120.24004402706,
    "latitude": 22.982150906613,
    "name": "台南市立復興國中",
    "date": "2016-06-14T14:30:01.906Z"
  },
  {
    "visit": 87,
    "longitude": 120.212917769,
    "latitude": 22.99704129708,
    "name": "臺南火車站 Tainan Train Station",
    "date": "2016-06-14T14:30:01.906Z"
  },
  {
    "visit": 95,
    "longitude": 120.21722757835,
    "latitude": 22.996498061546,
    "name": "國立成功大學",
    "date": "2016-06-14T14:30:01.906Z"
  },
  {
    "visit": 95,
    "longitude": 120.21666666667,
    "latitude": 23,
    "name": "National Cheng Kung University",
    "date": "2016-06-14T14:30:01.906Z"
  },
  {
    "visit": 97,
    "longitude": 120.22155555556,
    "latitude": 22.974833333333,
    "name": "Tainan Municipal Cultural Center",
    "date": "2016-06-14T14:30:01.906Z"
  },
  {
    "visit": 100,
    "longitude": 120.21857,
    "latitude": 22.98422,
    "name": "深藍咖啡館",
    "date": "2016-06-14T14:30:01.906Z"
  },
  {
    "visit": 107,
    "longitude": 120.19617022702,
    "latitude": 22.99238386733,
    "name": "赤嵌棺材板",
    "date": "2016-06-14T14:30:01.906Z"
  },
  {
    "visit": 110,
    "longitude": 120.21543509477,
    "latitude": 23.040711711082,
    "name": "大安順ktv",
    "date": "2016-06-14T14:30:01.906Z"
  },
  {
    "visit": 113,
    "longitude": 120.20451181892,
    "latitude": 22.980124001035,
    "name": "葡萄王葡眾企業-台南會場勞工育樂中心",
    "date": "2016-06-14T14:30:01.906Z"
  },
  {
    "visit": 114,
    "longitude": 120.22190494667,
    "latitude": 23.020507384629,
    "name": "永康奇美醫院",
    "date": "2016-06-14T14:30:01.906Z"
  },
  {
    "visit": 115,
    "longitude": 120.21814627428,
    "latitude": 22.994897958529,
    "name": "勝利早點",
    "date": "2016-06-14T14:30:01.906Z"
  },
  {
    "visit": 117,
    "longitude": 120.21429077317,
    "latitude": 22.996495579963,
    "name": "Shangri-La Tainan 香格里拉台南遠東國際大飯店",
    "date": "2016-06-14T14:30:01.906Z"
  },
  {
    "visit": 117,
    "longitude": 120.17856763435,
    "latitude": 23.158738286313,
    "name": "佳里丹丹漢堡",
    "date": "2016-06-14T14:30:01.906Z"
  },
  {
    "visit": 117,
    "longitude": 120.22631,
    "latitude": 22.99154,
    "name": "上海好味道小籠湯包",
    "date": "2016-06-14T14:30:01.906Z"
  },
  {
    "visit": 121,
    "longitude": 120.20270271355,
    "latitude": 22.991666504651,
    "name": "台南市陶板屋忠義店",
    "date": "2016-06-14T14:30:01.906Z"
  },
  {
    "visit": 134,
    "longitude": 120.24263749071,
    "latitude": 23.043689602214,
    "name": "桂田酒店－阿力海百匯自助餐廳",
    "date": "2016-06-14T14:30:01.906Z"
  },
  {
    "visit": 139,
    "longitude": 120.23293733967,
    "latitude": 22.99103966379,
    "name": "\"台南南紡\"夢時代購物中心",
    "date": "2016-06-14T14:30:01.906Z"
  },
  {
    "visit": 143,
    "longitude": 120.23308607346,
    "latitude": 22.990726758622,
    "name": "南紡夢時代-華納影城",
    "date": "2016-06-14T14:30:01.906Z"
  },
  {
    "visit": 145,
    "longitude": 120.200817,
    "latitude": 22.981624,
    "name": "國立臺南家齊女子高級中學",
    "date": "2016-06-14T14:30:01.906Z"
  },
  {
    "visit": 164,
    "longitude": 120.18655181945,
    "latitude": 22.986777392356,
    "name": "輕井澤【鍋の物】台南店",
    "date": "2016-06-14T14:30:01.906Z"
  },
  {
    "visit": 169,
    "longitude": 120.19858368,
    "latitude": 22.98767847,
    "name": "稻禾烏龍麵inaka-台南新光三越小西門店",
    "date": "2016-06-14T14:30:01.906Z"
  },
  {
    "visit": 169,
    "longitude": 120.19863961208,
    "latitude": 22.987050210035,
    "name": "新光三越 台南西門店",
    "date": "2016-06-14T14:30:01.906Z"
  },
  {
    "visit": 174,
    "longitude": 120.20639726929,
    "latitude": 23.001723223426,
    "name": "阿憨鹹粥",
    "date": "2016-06-14T14:30:01.906Z"
  },
  {
    "visit": 178,
    "longitude": 120.18466,
    "latitude": 22.98902,
    "name": "夏慕尼新香榭鐵板燒-台南永華店",
    "date": "2016-06-14T14:30:01.906Z"
  },
  {
    "visit": 192,
    "longitude": 120.20618754185,
    "latitude": 22.995549850652,
    "name": "台南大遠百-華納威秀",
    "date": "2016-06-14T14:30:01.906Z"
  },
  {
    "visit": 205,
    "longitude": 120.20086430918,
    "latitude": 22.993856822747,
    "name": "台南裕成水果店",
    "date": "2016-06-14T14:30:01.906Z"
  },
  {
    "visit": 214,
    "longitude": 120.1876511,
    "latitude": 22.9890909,
    "name": "Omaya春川炒雞台南永華店",
    "date": "2016-06-14T14:30:01.906Z"
  },
  {
    "visit": 216,
    "longitude": 120.22068,
    "latitude": 22.97383,
    "name": "騎士堡愛麗絲的家",
    "date": "2016-06-14T14:30:01.906Z"
  },
  {
    "visit": 252,
    "longitude": 120.1936512,
    "latitude": 23.0161435,
    "name": "極鮮火鍋文賢店",
    "date": "2016-06-14T14:30:01.906Z"
  },
  {
    "visit": 278,
    "longitude": 120.2619934,
    "latitude": 23.0194092,
    "name": "東東宴會式場永大幸福館",
    "date": "2016-06-14T14:30:01.906Z"
  },
  {
    "visit": 291,
    "longitude": 120.19721899186,
    "latitude": 22.986983811672,
    "name": "藍晒圖文創園區",
    "date": "2016-06-14T14:30:01.906Z"
  },
  {
    "visit": 544,
    "longitude": 120.18382,
    "latitude": 22.99347,
    "name": "碳佐麻里 -府前店",
    "date": "2016-06-14T14:30:01.906Z"
  },
  {
    "visit": 2369,
    "longitude": 120.23400289792,
    "latitude": 22.996153333333,
    "name": "台南 國賓影城",
    "date": "2016-06-14T14:30:01.906Z"
  }
]